地址,经度,纬度,是否精确,可信度,地址类型,坐标系,错误
长宁区水城南路268号（宿舍）,121.3889243,31.1978229,1,80,门址,wgs84,
徐汇区东安路230弄,121.4480372,31.19490545,1,70,地产小区,wgs84,
徐汇区东安路350弄,121.4504365,31.19182229,1,80,门址,wgs84,
徐汇区东安路180弄,121.454677,31.18508625,1,70,地产小区,wgs84,
徐汇区东安路13弄,121.4510103,31.19127384,,30,道路,wgs84,
徐汇区东安路240弄 ,121.4486463,31.19449629,1,70,地产小区,wgs84,
徐汇区东安路888弄,121.4572235,31.18381339,,50,NoClass,wgs84,
徐汇区东安路271弄,121.4500296,31.19337555,1,75,宾馆,wgs84,
徐汇区东安路230弄,121.4480372,31.19490545,1,70,地产小区,wgs84,
徐汇区东安路350弄,121.4504365,31.19182229,1,80,门址,wgs84,
徐汇区东安路180弄,121.454677,31.18508625,1,70,地产小区,wgs84,
徐汇区东安路13弄,121.4510103,31.19127384,,30,道路,wgs84,
徐汇区东安路240弄 ,121.4486463,31.19449629,1,70,地产小区,wgs84,
徐汇区东安路888弄,121.4572235,31.18381339,,50,NoClass,wgs84,
徐汇区东安路271弄,121.4500296,31.19337555,1,75,宾馆,wgs84,
闵行区莘松四村,121.3650867,31.10648674,1,70,地产小区,wgs84,
徐汇区钦州北路885弄,121.4086731,31.18242542,1,75,楼号,wgs84,
虹口区奎照路30弄,121.4785455,31.30249002,1,80,门址,wgs84,
杨浦区海州路105弄,121.5438234,31.27040868,1,80,门址,wgs84,
黄浦区马当路330号,121.4702923,31.21879492,1,80,门址,wgs84,
静安区西藏北路963号,121.4626039,31.26101167,1,80,门址,wgs84,
徐汇区虹桥路666弄,121.4213774,31.19621159,,50,NoClass,wgs84,
杨浦区江湾城路399弄,121.5130971,31.33344065,,30,道路,wgs84,
浦东新区彩云路568弄,121.8023752,30.90119079,1,80,门址,wgs84,
闵行区莘建路60弄,121.371889,31.10783738,,30,道路,wgs84,
宝山区园光路189号,121.3386783,31.30065628,1,80,门址,wgs84,
静安区平陆路311弄,121.4692499,31.26861741,1,70,地产小区,wgs84,
杨浦区政本路115号,121.5108393,31.29385911,1,80,门址,wgs84,
松江区茸康路135号,121.1682529,31.00705767,1,80,门址,wgs84,
宝山区虎林路800弄,121.4491974,31.34633789,1,80,门址,wgs84,
长宁区汇川路88弄,121.4138227,31.21939648,1,80,门址,wgs84,
嘉定区恒飞路733弄,121.1532823,31.36392873,1,70,地产小区,wgs84,
黄浦区淡水路213号,121.468882,31.21934698,1,80,门址,wgs84,
浦东新区西营路62号,121.479077,31.17197193,1,80,门址,wgs84,
徐汇区宛平南路590号,121.4433382,31.19104985,1,80,门址,wgs84,
松江区莘砖公路3118号,121.2928336,31.09528082,,30,道路,wgs84,
杨浦区眉州路938弄,121.5255863,31.27172361,1,80,门址,wgs84,
静安区景凤路205弄,121.4580851,31.32123659,1,70,地产小区,wgs84,
普陀区普陀四村,121.4110197,31.23747908,1,70,地产小区,wgs84,
黄浦区金坛路15号,121.4937629,31.22110873,1,80,门址,wgs84,
虹口区玉田路414弄,121.4829471,31.28164218,1,80,门址,wgs84,
浦东新区上浦路201弄,121.4887779,31.14783972,1,80,门址,wgs84,
虹口区水电路680号,121.4714096,31.28516532,1,80,门址,wgs84,
静安区宝源路225号,121.4756934,31.2585139,1,80,门址,wgs84,
长宁区长宁路476弄,121.4206132,31.22500276,1,80,门址,wgs84,
静安区宝山路519号,121.4734516,31.26031851,1,80,门址,wgs84,
浦东新区团林路38号,121.565711,31.26577771,1,80,门址,wgs84,
闵行区剑川路150弄,121.4596024,31.04565028,1,80,门址,wgs84,
徐汇区襄阳南路237号,121.4531343,31.21293607,1,80,门址,wgs84,
黄浦区九江路600号,121.4737493,31.23687067,1,80,门址,wgs84,
静安区武定路584号,121.4446669,31.23496737,1,80,门址,wgs84,
浦东新区笋兴路10号,121.6388823,31.02524056,1,80,门址,wgs84,
嘉定区仓场路421弄,121.2658713,31.38399681,1,80,门址,wgs84,
闵行区龙港路10弄,121.5226372,31.06878288,,50,NoClass,wgs84,
宝山区泰和路281号,121.4897114,31.37636679,1,80,门址,wgs84,
虹口区池沟路300弄,121.4748859,31.30476525,1,70,地产小区,wgs84,
虹口区保定路299号,121.5056224,31.26024535,1,80,门址,wgs84,
闵行区颛兴路748弄,121.3828662,31.06584794,1,70,教育,wgs84,
徐汇区零陵路655号,121.4404367,31.18882368,1,80,门址,wgs84,
松江区新松江路2218弄,121.2043396,31.04093607,,30,道路,wgs84,
浦东新区芳华路455弄,121.5555045,31.19844071,1,80,门址,wgs84,
浦东新区曹路镇永丰村大徐家宅,121.6921749,31.25729526,,50,村庄,wgs84,
嘉定区柳湖路481弄,121.243196,31.40364501,,50,NoClass,wgs84,
浦东新区唐镇一心村朱家宅,121.6781161,31.24575727,,50,村庄,wgs84,
黄浦区宁波路284弄,121.4773431,31.24072522,1,80,门址,wgs84,
浦东新区康杉路151弄,121.556669,31.15357422,1,80,门址,wgs84,
长宁区茅台路460弄,121.3896394,31.21190804,1,75,楼号,wgs84,
黄浦区建国西路176号,121.4579894,31.20871203,1,80,门址,wgs84,
宝山区菊联路233弄,121.3591276,31.34823849,,50,NoClass,wgs84,
长宁区仙霞路1225弄,121.3702735,31.21000668,1,75,楼号,wgs84,
虹口区梧州路298号,121.4889681,31.25753819,1,80,门址,wgs84,
虹口区东体育会路77号,121.4767744,31.27591916,1,80,门址,wgs84,
嘉定区北陈路320号,121.319586,31.33553551,1,80,门址,wgs84,
普陀区武威路1236弄,121.3416685,31.28390731,,50,NoClass,wgs84,
长宁区长宁路1277弄,121.4080837,31.21876264,1,75,楼号,wgs84,
黄浦区重庆北路132号,121.4658556,31.2277997,1,80,门址,wgs84,
浦东新区华夏二路1500弄,121.6863583,31.1739703,1,80,门址,wgs84,
宝山区潘泾路4777弄,121.344252,31.4658936,1,80,门址,wgs84,
浦东新区严杨路166弄,121.5253746,31.19649595,1,70,地产小区,wgs84,
徐汇区桂林西街111弄,121.4146373,31.15269702,1,80,门址,wgs84,
闵行区双柏路955号,121.4350766,31.09089875,1,80,门址,wgs84,
静安区江宁路373号,121.4481041,31.23560575,1,80,门址,wgs84,
黄浦区斜土东路255号,121.4824388,31.20968007,1,80,门址,wgs84,
静安区公兴路88号,121.4702512,31.25556008,1,80,门址,wgs84,
黄浦区长乐路83弄,121.4636952,31.22383268,1,80,门址,wgs84,
静安区新闸路1068弄,121.4517127,31.23538128,1,70,地产小区,wgs84,
杨浦区平凉路1365弄,121.5326111,31.26575965,1,80,门址,wgs84,
徐汇区东安路230弄,121.4480372,31.19490545,1,70,地产小区,wgs84,
静安区彭浦新村391号,121.4406201,31.3148204,,25,乡镇,wgs84,
嘉定区于塘南路380弄,121.2615543,31.3764608,,20,区县,wgs84,
黄浦区东江阴街118号,121.4940579,31.21575921,1,80,门址,wgs84,
闵行区莘东路298弄,121.3717885,31.11168775,1,75,购物,wgs84,
宝山区上大路218号,121.3974838,31.31369912,1,80,门址,wgs84,
黄浦区延安东路353弄,121.4750364,31.23115208,,30,道路,wgs84,
宝山区石太路86弄,121.3957606,31.45608775,1,70,地产小区,wgs84,
徐汇区乐山支路4弄,121.4323841,31.19008224,,20,区县,wgs84,
宝山区宝林八村,121.4897676,31.40805707,,50,NoClass,wgs84,
闵行区银都路2188弄,121.4113626,31.10160257,,50,NoClass,wgs84,
浦东新区浦三路930弄,121.5118875,31.19024281,1,70,地产小区,wgs84,
杨浦区平凉路1759号,121.5383837,31.27060222,1,80,门址,wgs84,
宝山区蕰川路6号,121.4290985,31.34549987,1,80,门址,wgs84,
宝山区三桥村,121.3670355,31.46338498,,50,村庄,wgs84,
宝山区松兰路233弄,121.4444047,31.37138805,1,70,地产小区,wgs84,
普陀区石湾路7弄,121.3923476,31.25102608,,20,区县,wgs84,
浦东新区海霞路135弄,121.7312527,31.16978563,1,75,宾馆,wgs84,
黄浦区江阴路78号,121.4645281,31.23178232,1,80,门址,wgs84,
浦东新区大同路688弄,121.5716827,31.34160517,,50,NoClass,wgs84,
闵行区申北路135弄,121.3797221,31.09285336,1,75,楼号,wgs84,
宝山区菊泉街400弄,121.3684345,31.36066786,,30,道路,wgs84,
嘉定区丰江路128弄,121.3414398,31.25543089,1,70,地产小区,wgs84,
浦东新区龙居路30弄,121.5551958,31.25611844,1,70,地产小区,wgs84,
浦东新区妙川路800号,121.698626,31.17869691,1,80,门址,wgs84,
长宁区长宁路1661弄,121.4023925,31.21882922,1,80,门址,wgs84,
浦东新区浦东大道1851弄,121.5417747,31.24896441,1,80,门址,wgs84,
徐汇区桂林路575号,121.4105077,31.18066487,1,80,门址,wgs84,
徐汇区襄阳南路173弄,121.4528643,31.2154053,1,70,休闲娱乐,wgs84,
闵行区庙泾路56号,121.3744161,31.11760184,1,80,门址,wgs84,
浦东新区拱川路411弄,121.7387177,31.06637508,1,70,地产小区,wgs84,
黄浦区河南中路154号,121.4817534,31.23550628,1,80,门址,wgs84,
浦东新区大团镇董村村,121.7762413,30.95195657,,50,村庄,wgs84,
虹口区广中支路140号,121.4719479,31.27673684,1,80,门址,wgs84,
长宁区淮海西路358弄,121.4211656,31.20150167,1,80,门址,wgs84,
闵行区爱博二村,121.3021083,31.20728253,1,70,地产小区,wgs84,
黄浦区先棉祠北弄35号,121.4867951,31.21977819,1,80,门址,wgs84,
浦东新区联丰村南沈队沈家墙,121.5072349,31.15699901,,50,村庄,wgs84,
静安区北京西路1112号,121.4492165,31.23181855,1,80,门址,wgs84,
闵行区上中西路738弄,121.4128143,31.13343823,1,80,门址,wgs84,
长宁区茅台路455弄,121.3890166,31.21161045,1,80,门址,wgs84,
黄浦区黄河路229号,121.4650662,31.23857659,1,80,门址,wgs84,
虹口区四平路577号,121.4910209,31.27202474,1,80,门址,wgs84,
闵行区永平南路203弄,121.4287523,31.01365814,,50,NoClass,wgs84,
嘉定区曹安公路1926号,121.3578637,31.25699227,1,80,门址,wgs84,
长宁区遵义路402弄,121.4052038,31.21436544,1,70,地产小区,wgs84,
杨浦区许昌路1200号,121.5127684,31.26861295,1,80,门址,wgs84,
虹口区曲阳路510号,121.4865319,31.27973645,1,80,门址,wgs84,
浦东新区崂山路562号,121.5136296,31.23969661,1,80,门址,wgs84,
浦东新区川沙新镇牌楼村北祝家宅,121.6936161,31.1558627,,50,村庄,wgs84,
虹口区池沟路16号,121.4744785,31.30291712,1,80,门址,wgs84,
浦东新区昌里东路80弄,121.501774,31.1767889,1,80,门址,wgs84,
闵行区姚虹路299弄,121.4041502,31.19290889,1,80,门址,wgs84,
浦东新区泥城镇高桥村,121.8156723,30.91836305,,50,村庄,wgs84,
宝山区宝钢四村,121.4811611,31.4103631,,50,NoClass,wgs84,
徐汇区宛平南路255弄,121.4433348,31.19549672,1,80,门址,wgs84,
虹口区昆山路136弄,121.4836109,31.25207907,1,80,门址,wgs84,
静安区胶州路175弄,121.4392067,31.22898333,1,80,门址,wgs84,
宝山区虎林路504号,121.4522338,31.34053884,1,80,门址,wgs84,
浦东新区长清路2060号,121.4926254,31.14186527,1,80,门址,wgs84,
黄浦区永安路2号,121.4870108,31.23320761,1,80,门址,wgs84,
杨浦区控江路103号,121.5432079,31.29053012,1,80,门址,wgs84,
虹口区同心路359弄,121.4676157,31.2719788,,30,道路,wgs84,
浦东新区浦东大道691弄,121.5580382,31.26149658,,30,道路,wgs84,
浦东新区康泽路550弄,121.539716,31.22324453,,20,区县,wgs84,
青浦区利通路贺桥村路,121.0956219,31.16420778,,30,道路,wgs84,
静安区铜仁路90弄,121.4466645,31.22618878,1,70,地产小区,wgs84,
徐汇区柳州路585弄,121.4165082,31.17863506,,50,NoClass,wgs84,
浦东新区德州路300弄,121.4864935,31.16829454,1,70,地产小区,wgs84,
黄浦区西藏南路1371弄,121.4837687,31.20778717,1,70,地产小区,wgs84,
虹口区乍浦路321号,121.4823212,31.25184763,1,80,门址,wgs84,
静安区西藏北路1115号,121.4618095,31.26367107,1,80,门址,wgs84,
虹口区欧阳路677弄,121.4820444,31.27696554,1,70,地产小区,wgs84,
黄浦区黄河路132弄,121.4659879,31.23717408,1,80,门址,wgs84,
青浦区沪青平公路1818号,121.2772433,31.17190191,1,80,门址,wgs84,
黄浦区丽园路660号,121.4754949,31.20902959,1,80,门址,wgs84,
静安区芷江西路130号,121.4608105,31.25913034,1,80,门址,wgs84,
浦东新区长清路2326号,121.4955995,31.13774115,1,80,门址,wgs84,
静安区临汾路1051弄,121.4418744,31.31077713,1,80,门址,wgs84,
杨浦区政悦路500弄,121.5193637,31.33534882,,50,NoClass,wgs84,
松江区谷阳北路2388弄,121.2318083,31.05134827,,50,NoClass,wgs84,
黄浦区瑞金一路245号,121.4593874,31.22103465,1,80,门址,wgs84,
虹口区车站北路625弄,121.4648564,31.29882534,,50,NoClass,wgs84,
长宁区新渔路142号,121.3628703,31.21764649,1,80,门址,wgs84,
杨浦区政立路497号,121.5009474,31.31049986,1,80,门址,wgs84,
静安区西藏北路884号,121.4630642,31.26086093,1,80,门址,wgs84,
黄浦区北京东路462号,121.4767354,31.24190234,1,80,门址,wgs84,
浦东新区唐镇路127弄,121.6458512,31.20951343,1,70,医疗,wgs84,
浦东新区严桥路141弄,121.5249413,31.19254858,1,80,门址,wgs84,
虹口区沽源路128弄,121.4728879,31.30520265,1,75,楼号,wgs84,
宝山区富联路224号,121.4078851,31.35613723,1,80,门址,wgs84,
徐汇区天等路430弄,121.4239374,31.13991817,1,80,门址,wgs84,
浦东新区申江南路1999号生活区,121.631719,31.12891229,1,80,门址,wgs84,
黄浦区吉安路288号,121.4768414,31.21954861,1,80,门址,wgs84,
浦东新区祝桥镇红二村,121.7774349,31.09149164,,50,村庄,wgs84,
宝山区铁峰路477号,121.4652994,31.37288989,1,80,门址,wgs84,
虹口区凉城路480弄,121.465856,31.29209617,1,80,门址,wgs84,
浦东新区杨新路95号,121.4889865,31.16565318,1,80,门址,wgs84,
宝山区泰兴桥210号,121.4772578,31.36888108,1,80,门址,wgs84,
虹口区祥德路140号,121.4819794,31.27352102,1,80,门址,wgs84,
徐汇区桂平路70弄,121.4008301,31.16435031,,30,道路,wgs84,
宝山区祥德路134号,121.4855177,31.40652468,,20,区县,wgs84,
静安区长宁路165号,121.423652,31.22804642,1,80,门址,wgs84,
浦东新区浦建路47号,121.5149588,31.21243136,1,80,门址,wgs84,
闵行区通海路278号,121.4714601,31.03998712,1,80,门址,wgs84,
徐汇区中山南二路945弄,121.4444625,31.18461521,1,75,楼号,wgs84,
黄浦区淮海中路595号,121.4631177,31.22222575,1,80,门址,wgs84,
虹口区西江湾路718号,121.4760587,31.27843885,1,80,门址,wgs84,
静安区万荣路1199弄,121.4371895,31.29442726,1,70,地产小区,wgs84,
宝山区长虹路779弄,121.3219318,31.47806959,,50,NoClass,wgs84,
浦东新区高行镇朱家浜村瞿家弄,121.5673842,31.30221043,,50,村庄,wgs84,
闵行区恒星村,121.4836477,31.12460573,,50,村庄,wgs84,
浦东新区万安街333弄,121.6097064,31.29856347,,50,NoClass,wgs84,
嘉定区大北街320弄,121.2092689,31.43205525,,30,道路,wgs84,
浦东新区崂山一村,121.5134729,31.24194008,,50,NoClass,wgs84,
宝山区杨泰路338弄,121.4352772,31.37327312,1,70,地产小区,wgs84,
浦东新区五莲路1769弄,121.5930777,31.28640855,1,80,门址,wgs84,
黄浦区长乐路306号,121.4594514,31.22336663,1,80,门址,wgs84,
松江区盛龙路215号,121.3067116,31.10235302,1,80,门址,wgs84,
虹口区祥德路381号,121.4869479,31.27288756,1,80,门址,wgs84,
虹口区沙泾路166号,121.487934,31.25857382,1,80,门址,wgs84,
徐汇区田林一村,121.4140395,31.17150135,1,70,地产小区,wgs84,
浦东新区浦东南路4200弄,121.4963564,31.18534028,1,80,门址,wgs84,
闵行区紫藤二村,121.4065518,31.13241414,1,70,地产小区,wgs84,
嘉定区双坪路200弄,121.2658521,31.40627617,1,80,门址,wgs84,
黄浦区局门路599弄,121.478609,31.20261328,,50,NoClass,wgs84,
虹口区凉城路1318弄,121.4666131,31.29675236,,30,道路,wgs84,
静安区武定西路1398弄,121.4252712,31.2273898,1,80,门址,wgs84,
黄浦区绍兴路19号,121.4592588,31.21103762,1,80,门址,wgs84,
宝山区合众村,121.3228059,31.48931209,,50,村庄,wgs84,
黄浦区丽园路514弄,121.4772358,31.20950343,1,80,门址,wgs84,
闵行区莘朱路779号,121.3923994,31.1142168,1,80,门址,wgs84,
普陀区真南路822弄,121.3795795,31.27660999,1,80,门址,wgs84,
黄浦区泗泾路24号,121.48236,31.23551311,1,80,门址,wgs84,
黄浦区鲁班路529号,121.4723416,31.20169547,1,80,门址,wgs84,
松江区沪松公路2871号,121.2706336,31.10904495,1,80,门址,wgs84,
宝山区富锦路1659弄,121.4349278,31.40631872,,50,NoClass,wgs84,
虹口区天宝路59弄,121.4917519,31.26313177,1,80,门址,wgs84,
宝山区南陈路279弄,121.3939816,31.31066278,,50,NoClass,wgs84,
黄浦区鲁班路598弄,121.4716352,31.20024399,1,70,地产小区,wgs84,
静安区永和路592号,121.4311182,31.28888864,1,80,门址,wgs84,
浦东新区建中路171弄,121.6103578,31.20537981,1,75,楼号,wgs84,
虹口区凉城路845弄,121.4652927,31.30078708,1,80,门址,wgs84,
静安区永兴路932号,121.4551551,31.25319535,1,80,门址,wgs84,
虹口区文迁路38弄,121.4750512,31.3040423,1,80,门址,wgs84,
黄浦区北京东路471号,121.4767778,31.24157607,1,80,门址,wgs84,
宝山区泰兴桥220号,121.4783435,31.36958208,1,80,门址,wgs84,
徐汇区石龙支路27号,121.4355721,31.15908855,1,80,门址,wgs84,
黄浦区老道前街11号,121.4826889,31.22030995,1,80,门址,wgs84,
黄浦区柳江街19号,121.4855724,31.22110078,1,80,门址,wgs84,
普陀区桃浦路1883号,121.3615868,31.2652093,1,80,门址,wgs84,
黄浦区大沽路177号,121.4663752,31.22801808,1,80,门址,wgs84,
黄浦区西藏南路1566弄,121.4841891,31.20410835,1,70,地产小区,wgs84,
黄浦区广东路567号,121.476234,31.23376327,1,80,门址,wgs84,
长宁区水城路45弄,121.3852871,31.2037167,1,80,门址,wgs84,
黄浦区寿宁路10弄,121.4779687,31.22617178,1,75,楼号,wgs84,
宝山区新二路183弄,121.4706817,31.3277039,1,70,地产小区,wgs84,
长宁区新华路211弄,121.42306,31.20341943,1,80,门址,wgs84,
浦东新区夏栎路233弄,121.9114698,30.91244963,1,80,门址,wgs84,
黄浦区陆家浜路1300号,121.4795137,31.2133883,1,80,门址,wgs84,
闵行区七莘路2455弄,121.3491242,31.14950522,1,70,地产小区,wgs84,
虹口区峨嵋路299弄,121.4862141,31.25172778,1,80,门址,wgs84,
宝山区淞发路500弄,121.4867746,31.34483074,1,75,楼号,wgs84,
黄浦区中华路999号,121.4860858,31.21682563,1,80,门址,wgs84,
静安区南阳路183弄,121.446128,31.22963496,1,80,门址,wgs84,
黄浦区蒙自路379号,121.4747898,31.20506249,1,80,门址,wgs84,
杨浦区内江路222弄,121.5433946,31.28164008,1,80,门址,wgs84,
徐汇区肇嘉浜路661号,121.4485206,31.20174598,1,80,门址,wgs84,
青浦区华纺路283弄,121.1224726,31.16509945,,30,道路,wgs84,
虹口区余杭路99号,121.4864639,31.2531629,1,80,门址,wgs84,
浦东新区曹路镇日新村杨薛家宅,121.6642462,31.2612758,,50,村庄,wgs84,
黄浦区重庆北路212号,121.4653877,31.22906105,1,80,门址,wgs84,
黄浦区黄河路205号,121.4651916,31.23820811,1,80,门址,wgs84,
闵行区颛兴东路1550弄,121.4044047,31.07309022,1,80,门址,wgs84,
浦东新区南六公路399弄,121.7023047,31.06360455,1,80,门址,wgs84,
长宁区安顺路231弄,121.4119704,31.20258413,1,80,门址,wgs84,
黄浦区香港路58号,121.4825354,31.24481334,1,80,门址,wgs84,
黄浦区静修路43号,121.4834042,31.22213972,1,80,门址,wgs84,
浦东新区老港镇建港村港北,121.8431144,31.0300303,,50,村庄,wgs84,
浦东新区城丰路70弄,121.6849347,31.19330989,,50,NoClass,wgs84,
黄浦区顺昌路513号,121.4747837,31.21483912,1,80,门址,wgs84,
宝山区虎林路610号,121.4510673,31.34278667,1,80,门址,wgs84,
浦东新区秀沿西路218弄,121.529726,31.13185238,1,80,门址,wgs84,
宝山区杨宗路308号,121.4005523,31.38717059,1,80,门址,wgs84,
嘉定区海波路333弄,121.3357606,31.2683992,,50,NoClass,wgs84,
浦东新区川沙新镇长丰村陆家宅,121.6555163,31.19344397,,50,村庄,wgs84,
浦东新区居家桥路911弄,121.5668332,31.24711337,1,70,地产小区,wgs84,
青浦区青安路541号,121.1140041,31.15987576,1,80,门址,wgs84,
黄浦区打浦路399号,121.4678573,31.2005356,1,80,门址,wgs84,
嘉定区临夏路1000弄,121.3182525,31.2611685,,50,NoClass,wgs84,
杨浦区政立路810弄,121.4909408,31.30903374,1,80,门址,wgs84,
宝山区友谊路2429号,121.4345213,31.39103494,1,80,门址,wgs84,
嘉定区金运路766号,121.3167142,31.24682011,1,80,门址,wgs84,
浦东新区芳草路363弄,121.5543314,31.19438784,1,70,地产小区,wgs84,
徐汇区徐虹北路5弄,121.4323841,31.19008224,,20,区县,wgs84,
静安区万荣路399弄,121.4405393,31.27464582,1,70,地产小区,wgs84,
静安区中山北路188弄,121.4965724,31.25624834,1,70,地产小区,wgs84,
杨浦区延吉三村,121.5321807,31.28834493,1,70,地产小区,wgs84,
杨浦区长阳路1441号,121.5257797,31.26980701,1,80,门址,wgs84,
浦东新区华夏二路728弄,121.6816257,31.18913385,,50,NoClass,wgs84,
浦东新区梅林村,121.5580109,31.08845786,,50,村庄,wgs84,
杨浦区四平路1950弄,121.5073381,31.29270305,1,80,门址,wgs84,
宝山区长江西路1251号,121.4521062,31.33993381,1,80,门址,wgs84,
松江区朗亭路588弄,121.2891575,31.15144427,,30,道路,wgs84,
黄浦区面筋弄24号,121.4937483,31.22270404,,30,道路,wgs84,
虹口区新嘉路1弄,121.5005837,31.26611817,,20,区县,wgs84,
嘉定区绿苑路609弄,121.2042503,31.28344928,1,80,门址,wgs84,
松江区灵竹路99弄,121.1882411,31.0684453,,50,NoClass,wgs84,
虹口区大连西路165弄,121.4913253,31.27798764,1,70,地产小区,wgs84,
静安区新闸路777弄,121.4561444,31.23818234,,50,NoClass,wgs84,
浦东新区凌桥村仓房浜,121.5282243,31.3663031,,50,村庄,wgs84,
闵行区芦恒路196弄,121.4892523,31.1172899,1,80,门址,wgs84,
嘉定区先农村,121.3205524,31.2654767,,50,村庄,wgs84,
长宁区安化路321号,121.4192702,31.21652841,1,80,门址,wgs84,
黄浦区江西中路314号,121.4819029,31.24063018,1,80,门址,wgs84,
静安区汉中路333弄,121.4421592,31.22854774,1,70,地产小区,wgs84,
浦东新区上浦路410弄,121.4934808,31.14778146,1,70,地产小区,wgs84,
宝山区少年村路43号,121.4171123,31.30207162,1,80,门址,wgs84,
闵行区合川路2850号,121.3783789,31.1727833,1,80,门址,wgs84,
浦东新区金豫路100号,121.6103061,31.25798576,1,80,门址,wgs84,
杨浦区共青路107弄,121.557877,31.28300916,,30,道路,wgs84,
宝山区水产路1699号,121.4592047,31.38152559,1,80,门址,wgs84,
普陀区梅川路888弄,121.3858719,31.24264835,1,70,地产小区,wgs84,
黄浦区龙华东路888弄,121.4667032,31.19503929,1,80,门址,wgs84,
浦东新区中心村奚家宅,121.8327989,30.88518541,,50,村庄,wgs84,
浦东新区周浦镇北庄村,121.6531909,31.09626224,,50,村庄,wgs84,
徐汇区泰安路27弄,121.4330544,31.20737714,1,80,门址,wgs84,
松江区乐都支路85弄,121.2284087,31.01394878,1,80,门址,wgs84,
松江区南姚路139弄,121.3026776,31.01973357,1,80,餐饮,wgs84,
长宁区虹古路377弄,121.3841988,31.20532898,1,80,门址,wgs84,
浦东新区沪南公路4699弄工地生活区,121.6486406,31.03188448,,30,道路,wgs84,
杨浦区沈阳路148号,121.5312069,31.2621349,1,80,门址,wgs84,
虹口区东宝兴路833号,121.4781225,31.25983196,,30,道路,wgs84,
杨浦区杨树浦路1455弄,121.5331414,31.25817728,1,80,门址,wgs84,
闵行区中谊路888弄,121.345825,31.13935337,1,70,地产小区,wgs84,
长宁区威宁路358弄,121.3807815,31.21582457,1,80,门址,wgs84,
浦东新区群乐村南冯家宅,121.6751937,31.28746702,,50,村庄,wgs84,
杨浦区榆林路238号,121.5134734,31.25683065,1,80,门址,wgs84,
静安区昌平路418弄,121.4496874,31.20917413,1,70,地产小区,wgs84,
浦东新区北中路408弄,121.5570057,31.18635821,,30,道路,wgs84,
黄浦区中山南一路1043弄,121.4681905,31.19798974,1,80,门址,wgs84,
松江区城鸿路222弄,121.2330768,31.11147807,1,80,门址,wgs84,
黄浦区仪凤弄105弄,121.4812961,31.22028993,,30,道路,wgs84,
虹口区大连西路159弄,121.4864385,31.27845257,,30,道路,wgs84,
静安区三泉路821弄,121.4350962,31.31837577,,50,村庄,wgs84,
浦东新区曹路镇东海村曹家宅,121.6699512,31.30283032,,50,NoClass,wgs84,
松江区平原街295弄,121.1318496,31.03540009,,30,道路,wgs84,
闵行区朱行二村,121.4177684,31.1233814,1,70,地产小区,wgs84,
浦东新区建中路126弄,121.6100699,31.20631559,1,80,门址,wgs84,
浦东新区居家桥路1030弄,121.5665127,31.2469621,1,75,楼号,wgs84,
杨浦区昆明路66号,121.5139681,31.26655077,,30,道路,wgs84,
宝山区沪联路768号,121.3546365,31.36056243,1,80,门址,wgs84,
浦东新区环镇东路185弄,121.6001011,31.02302493,,50,NoClass,wgs84,
虹口区玉田路333号,121.486559,31.28059917,1,80,门址,wgs84,
黄浦区中山南一路1042号,121.4664743,31.19684183,1,80,门址,wgs84,
静安区闻喜路365号,121.4546636,31.3101365,1,80,门址,wgs84,
静安区大统路200号,121.4604952,31.24483597,,30,道路,wgs84,
浦东新区金台路181弄,121.5827969,31.25355482,1,75,楼号,wgs84,
黄浦区梦花街149号,121.4825803,31.22059775,1,80,门址,wgs84,
宝山区塔源路58弄,121.3978634,31.45004904,1,75,购物,wgs84,
静安区陕西北路812号,121.4443854,31.23743878,1,80,门址,wgs84,
徐汇区番禺路1160弄,121.421325,31.19392848,1,80,门址,wgs84,
浦东新区秀沿路1028弄,121.574488,31.13425319,1,80,门址,wgs84,
杨浦区政立路830弄,121.4894032,31.30986897,1,80,门址,wgs84,
黄浦区淡水路201号,121.4688489,31.21974577,1,80,门址,wgs84,
黄浦区黄家阙路68弄,121.4828872,31.21698831,1,75,楼号,wgs84,
静安区陕西北路835弄,121.4435517,31.23740938,1,80,门址,wgs84,
浦东新区祝桥镇金星村,121.7682327,31.11524971,,50,村庄,wgs84,
黄浦区打浦路29号,121.4664741,31.20541808,1,80,门址,wgs84,
虹口区四川北路2121号,121.4773128,31.26746777,1,80,门址,wgs84,
黄浦区永宁街60号,121.4841211,31.21734772,1,80,门址,wgs84,
宝山区杨宗路181号,121.4103625,31.38987565,1,80,门址,wgs84,
黄浦区制造局路749弄,121.4801742,31.20601571,,30,道路,wgs84,
浦东新区上南路1200弄,121.4910808,31.17421639,1,80,门址,wgs84,
静安区灵石路733弄,121.4353339,31.28608599,1,80,门址,wgs84,
虹口区横浜路158弄,121.4745064,31.26533171,1,80,门址,wgs84,
徐汇区虹漕南路425号,121.4115006,31.15272941,1,80,门址,wgs84,
青浦区香大路215号,121.1101891,31.20915578,1,80,门址,wgs84,
宝山区真北路4333弄,121.397032,31.29383783,1,80,门址,wgs84,
浦东新区灵岩南路156弄,121.4899684,31.16160716,1,70,地产小区,wgs84,
松江区新港路125号,121.1413469,31.00817018,,30,道路,wgs84,
浦东新区汇达村,121.5673641,31.02975083,,50,村庄,wgs84,
虹口区乍浦路342号,121.4824517,31.25218545,1,80,门址,wgs84,
松江区恒泽路188弄,121.2526923,31.12487982,,30,道路,wgs84,
浦东新区浦建路1086弄,121.533722,31.20895727,1,75,楼号,wgs84,
黄浦区中山南路1586弄,121.490481,31.20749833,1,70,地产小区,wgs84,
杨浦区鞍山路215弄,121.5047456,31.2808532,1,80,门址,wgs84,
闵行区鲁康路555弄,121.5133504,31.03062618,,50,NoClass,wgs84,
嘉定区火车站路185弄,121.3021487,31.28628247,1,70,地产小区,wgs84,
虹口区广灵四路572弄,121.4641291,31.28895757,1,80,门址,wgs84,
黄浦区重庆北路318弄,121.4653931,31.22869707,,30,道路,wgs84,
松江区申南五路555弄,121.3565081,31.08206755,,30,道路,wgs84,
虹口区车站北路727弄,121.4609796,31.29896576,1,80,餐饮,wgs84,
宝山区通南路366弄,121.468066,31.33873198,,30,道路,wgs84,
黄浦区徽宁路8号,121.491097,31.2135813,1,80,门址,wgs84,
浦东新区御桥路288弄,121.5321048,31.15196976,1,80,门址,wgs84,
嘉定区华江路121弄,121.3379796,31.25628703,1,70,地产小区,wgs84,
浦东新区新金桥路2002号生活区,121.6198945,31.26351433,1,80,门址,wgs84,
黄浦区四川中路630号,121.4818398,31.24451943,1,80,门址,wgs84,
徐汇区龙水北路960弄,121.4418094,31.17332493,1,80,门址,wgs84,
黄浦区曹市弄12号,121.4845901,31.22120619,,30,道路,wgs84,
虹口区安国路28弄,121.5041421,31.25941735,1,80,门址,wgs84,
闵行区颛兴路345弄,121.3898503,31.06758814,,50,NoClass,wgs84,
浦东新区栖山路1299弄,121.556729,31.25721243,,50,NoClass,wgs84,
虹口区东江湾路15号,121.4765489,31.26737803,1,80,门址,wgs84,
松江区蒲汇路85弄,121.3256729,31.14258587,,50,NoClass,wgs84,
浦东新区中界村林家队林家湾,121.56748,31.18507232,,50,村庄,wgs84,
杨浦区长阳路1658弄,121.531647,31.27217769,1,75,楼号,wgs84,
松江区香车路398号,121.2879374,31.00401628,1,80,门址,wgs84,
闵行区浦秀路401号,121.4903078,31.07871522,1,80,门址,wgs84,
浦东新区长元村顾家宅,121.6301667,31.16978324,1,70,地产小区,wgs84,
闵行区江川路241弄,121.4179495,31.00348937,1,80,门址,wgs84,
宝山区盛桥一村,121.399786,31.45396449,1,70,地产小区,wgs84,
虹口区新市北路1525弄,121.4769171,31.30942067,1,80,门址,wgs84,
浦东新区城南路555弄,121.6953409,31.1935342,,30,道路,wgs84,
浦东新区康士路15弄,121.5588861,31.15152689,1,80,门址,wgs84,
黄浦区南苏州路185号,121.4821985,31.24535512,1,80,门址,wgs84,
宝山区共康路870号,121.4230983,31.32246327,1,80,门址,wgs84,
浦东新区建光村西陈家宅,121.547795,31.35832094,,50,村庄,wgs84,
黄浦区牛庄路728号,121.4716776,31.23946881,1,80,门址,wgs84,
虹口区西安路60号,121.4905474,31.25153666,,30,道路,wgs84,
虹口区逸仙路485弄,121.4900659,31.31484911,1,70,地产小区,wgs84,
嘉定区沪宜公路2245号,121.2774653,31.33623915,1,80,门址,wgs84,
普陀区宜川路318号,121.432711,31.26478907,1,80,门址,wgs84,
浦东新区航鹤路999弄,121.5809373,31.04370459,,50,NoClass,wgs84,
静安区普善路28号,121.4535843,31.25620427,1,80,门址,wgs84,
静安区江宁路772号,121.444064,31.24093884,1,80,门址,wgs84,
黄浦区青岛路53号,121.4636992,31.23922902,1,80,门址,wgs84,
静安区北京西路1110弄,121.4491618,31.23197561,1,70,地产小区,wgs84,
静安区安远路515弄,121.435446,31.2393623,1,75,商务大厦,wgs84,
杨浦区辽源西路186号,121.5053759,31.27060046,1,80,门址,wgs84,
长宁区定西路1453弄,121.4188364,31.21196613,,30,道路,wgs84,
浦东新区东方路1881弄,121.5215045,31.19713968,1,80,门址,wgs84,
黄浦区香港路150号,121.4809083,31.24480069,1,80,门址,wgs84,
浦东新区临江村张塘队张家宅,121.7211553,31.25775687,1,70,地产小区,wgs84,
宝山区月罗路259弄,121.3670445,31.4195172,,30,道路,wgs84,
浦东新区南塘村姚家宅,121.5640113,31.3411972,,50,村庄,wgs84,
宝山区范家园新村,121.3381942,31.41132771,1,70,地产小区,wgs84,
黄浦区广东路630号,121.4749936,31.23342024,1,80,门址,wgs84,
松江区长兴路98弄,121.275916,31.08584767,1,70,教育,wgs84,
浦东新区康杉路608弄,121.5603226,31.14838458,,50,NoClass,wgs84,
虹口区中山北一路1102号,121.4817392,31.29134348,1,80,门址,wgs84,
宝山区呼兰路799号,121.4384879,31.34404422,1,80,门址,wgs84,
黄浦区黄河路225号,121.4649679,31.23848935,1,80,门址,wgs84,
黄浦区先棉祠北弄61号,121.4863859,31.21961,1,80,门址,wgs84,
静安区宝昌路132弄,121.4977217,31.26147485,1,70,地产小区,wgs84,
浦东新区金海路2668弄,121.596403,31.25686329,,30,道路,wgs84,
浦东新区药师村曹家宅,121.6775848,31.205192,,50,村庄,wgs84,
黄浦区曹家弄18号,121.4805148,31.23347475,,20,区县,wgs84,
徐汇区江安路58弄,121.4113258,31.14946792,1,80,门址,wgs84,
黄浦区江西中路141号,121.4830063,31.23619266,1,80,门址,wgs84,
长宁区万航渡路2032弄,121.4085437,31.22432911,1,80,门址,wgs84,
静安区场中路3220弄,121.4306204,31.30498375,1,70,地产小区,wgs84,
静安区西康路810号,121.4394346,31.23965988,1,80,门址,wgs84,
杨浦区邯郸路399号,121.5058523,31.30007457,1,80,门址,wgs84,
浦东新区凌河路618弄,121.5974054,31.27336162,1,80,门址,wgs84,
黄浦区巡道街34弄,121.4929356,31.22103138,,30,道路,wgs84,
静安区石门一路53号,121.4585294,31.22704074,1,80,门址,wgs84,
静安区平陆路397弄,121.4418419,31.28759776,,30,道路,wgs84,
浦东新区三林镇临江村王家宅队王家宅,121.4729765,31.12302181,,50,村庄,wgs84,
虹口区溧阳路1235号,121.4830969,31.26499583,1,80,门址,wgs84,
徐汇区五原路212弄,121.4407441,31.21450879,1,70,地产小区,wgs84,
浦东新区泰环路215号,121.5228375,31.14453328,1,80,门址,wgs84,
杨浦区平凉路1976弄,121.5418929,31.27170937,1,80,门址,wgs84,
浦东新区民利村周庄家宅,121.7276492,31.18021729,,50,村庄,wgs84,
浦东新区塘桥路551号,121.5167461,31.21315619,1,80,门址,wgs84,
黄浦区徽宁路716号,121.4802673,31.20956087,1,80,门址,wgs84,
闵行区瓶北路150弄,121.3977951,31.05773058,1,80,门址,wgs84,
杨浦区闸殷路1555号,121.50606,31.31369409,1,80,门址,wgs84,
虹口区天宝路280弄,121.4913813,31.26687312,1,80,门址,wgs84,
静安区彭江路399弄,121.4573025,31.27027701,1,70,地产小区,wgs84,
闵行区北翟路1515号,121.3374831,31.22492804,1,80,门址,wgs84,
宝山区长逸路15号,121.4895478,31.34159686,1,80,门址,wgs84,
徐汇区嘉善路143弄,121.4552106,31.21093282,1,80,门址,wgs84,
虹口区逸仙路270弄,121.4829761,31.30069527,,30,道路,wgs84,
普陀区武威东路821弄,121.3843671,31.27800842,,50,NoClass,wgs84,
浦东新区羽山路1446弄,121.5579176,31.24179786,1,80,门址,wgs84,
浦东新区东方路268号,121.5168197,31.23887715,1,80,门址,wgs84,
浦东新区华路村蔡家宅,121.7232725,31.19359113,1,70,地产小区,wgs84,
虹口区天宝路902号,121.4959207,31.27504078,1,80,门址,wgs84,
嘉定区曹安公路2622号,121.3302642,31.26522649,1,80,门址,wgs84,
宝山区长江路780弄,121.4821246,31.34913178,1,80,门址,wgs84,
静安区岭南路15弄,121.4505302,31.3076567,1,80,门址,wgs84,
黄浦区西藏中路200号,121.4727543,31.23351275,1,80,门址,wgs84,
宝山区联长路59号,121.4607359,31.33905939,1,80,门址,wgs84,
浦东新区福山路49弄,121.5215932,31.24038854,1,80,门址,wgs84,
浦东新区成山路608弄,121.5041557,31.1740178,1,70,地产小区,wgs84,
嘉定区腾飞支路28号,121.2615543,31.3764608,,20,区县,wgs84,
浦东新区花墙村,121.5420504,31.15224135,,50,村庄,wgs84,
浦东新区翔川路458弄,121.6907752,31.18486816,,50,NoClass,wgs84,
浦东新区宣桥镇季桥村,121.6872814,31.06024027,,50,村庄,wgs84,
浦东新区高桥村西顾家宅,121.7224741,31.16565978,,50,村庄,wgs84,
黄浦区斜土路645号,121.4697096,31.20495262,1,80,门址,wgs84,
杨浦区翔殷路871弄,121.5205849,31.30319815,1,80,门址,wgs84,
松江区长溇村,121.2820246,30.9670606,,50,村庄,wgs84,
宝山区水产路2289号,121.4425474,31.36963997,1,80,门址,wgs84,
杨浦区控江路2026弄,121.5063498,31.27553212,1,80,门址,wgs84,
黄浦区曹家街38号,121.4815988,31.22099268,1,80,门址,wgs84,
徐汇区龙南公寓,121.4521506,31.15650432,1,70,地产小区,wgs84,
黄浦区长乐路392号,121.4569081,31.22297257,1,80,门址,wgs84,
长宁区万航渡路1455号,121.4164942,31.22686878,1,80,门址,wgs84,
静安区胶州路358弄,121.4383026,31.23263115,1,70,政府机构,wgs84,
虹口区胡家木桥路8号,121.4888607,31.26135133,,30,道路,wgs84,
虹口区塘沽路75号,121.4888869,31.24929365,1,80,门址,wgs84,
徐汇区中山南二路988弄,121.441316,31.18386877,1,80,门址,wgs84,
静安区京江路176号,121.4601674,31.25018323,1,80,门址,wgs84,
静安区长兴路168弄,121.4571028,31.25195047,,50,NoClass,wgs84,
普陀区宜川三村,121.436397,31.25904367,,50,NoClass,wgs84,
黄浦区学宫街33弄,121.4838647,31.22038089,,30,道路,wgs84,
黄浦区局门路541号,121.4783064,31.2033674,1,80,门址,wgs84,
嘉定区金沙江西路1555弄,121.3244803,31.24254775,1,80,门址,wgs84,
嘉定区栖林路178弄,121.3157259,31.30835034,1,80,门址,wgs84,
黄浦区广东路660号,121.4745474,31.23323262,1,80,门址,wgs84,
闵行区康华路146号,121.5182935,31.07000067,1,80,门址,wgs84,
杨浦区江浦路1424弄,121.5156279,31.27571873,1,80,门址,wgs84,
闵行区景谷东路99弄,121.4195548,31.02197728,1,80,门址,wgs84,
宝山区淞南路211弄,121.4873426,31.3441973,,50,NoClass,wgs84,
黄浦区牯岭路174号,121.4660072,31.23783149,1,80,门址,wgs84,
虹口区四川北路1851号,121.4790741,31.26346177,1,80,门址,wgs84,
宝山区南卫路38弄,121.3556403,31.38673935,1,80,门址,wgs84,
浦东新区上南路3848弄,121.5008505,31.1525024,1,70,地产小区,wgs84,
虹口区横浜路63弄,121.507886,31.27914163,1,70,地产小区,wgs84,
黄浦区北京东路816号,121.4702947,31.24019168,1,80,门址,wgs84,
黄浦区曹市弄23弄,121.4805148,31.23347475,,20,区县,wgs84,
松江区沪松公路2511弄,121.2807187,31.11764467,1,80,门址,wgs84,
闵行区江川路291弄,121.4132928,31.00528935,1,80,门址,wgs84,
徐汇区淮海中路1502号,121.4410251,31.21089702,1,80,门址,wgs84,
宝山区潘广路325弄,121.3791013,31.37243413,,30,道路,wgs84,
浦东新区南泉北路170弄,121.5120513,31.23869848,1,75,楼号,wgs84,
宝山区萧云路1318弄,121.3274424,31.4568487,1,70,地产小区,wgs84,
长宁区水城路883弄,121.3866831,31.21913082,1,75,宾馆,wgs84,
黄浦区先棉祠街38号,121.4867802,31.21920546,1,80,门址,wgs84,
黄浦区尚文路133弄,121.486933,31.21783362,1,80,门址,wgs84,
闵行区虹梅南路2638弄,121.4329442,31.09761703,1,80,门址,wgs84,
徐汇区零陵路639号,121.4411654,31.18930074,1,80,门址,wgs84,
浦东新区高桥镇陆凌村瞿家宅,121.5594354,31.3481667,,50,村庄,wgs84,
宝山区通河三村,121.4397037,31.33620549,1,70,地产小区,wgs84,
宝山区长江西路398号,121.447436,31.33768217,,30,道路,wgs84,
嘉定区金通路1968弄,121.3144341,31.28611958,,50,NoClass,wgs84,
黄浦区广西北路118弄,121.4744221,31.23346801,1,80,门址,wgs84,
徐汇区小闸镇街123号,121.4219857,31.1814185,1,80,门址,wgs84,
浦东新区凌兆路127弄,121.4889941,31.14418348,1,80,门址,wgs84,
浦东新区赵高公路1606号,121.6344162,31.30094192,1,80,门址,wgs84,
宝山区水产路1455号,121.4750378,31.38138766,1,80,门址,wgs84,
松江区闵塔路1751弄,121.168444,30.97801931,1,70,地产小区,wgs84,
闵行区古美路1458弄,121.39741,31.16162038,1,80,门址,wgs84,
松江区九舒路518号,121.3042428,31.1016891,1,80,门址,wgs84,
浦东新区申江南路7677弄,121.6514272,31.0362363,1,70,地产小区,wgs84,
静安区止园路381弄,121.4645647,31.2614434,,30,道路,wgs84,
黄浦区顺昌路490号,121.4746996,31.21494656,1,80,门址,wgs84,
黄浦区曹家街33号,121.4817029,31.22107245,1,80,门址,wgs84,
普陀区香泉路85弄,121.4064157,31.26632073,1,80,门址,wgs84,
嘉定区慈竹路70弄,121.2157886,31.37010229,1,70,地产小区,wgs84,
宝山区蕰川路329号,121.430463,31.35257452,1,80,门址,wgs84,
浦东新区张杨北路588弄,121.5845222,31.27142153,1,75,楼号,wgs84,
徐汇区宛平南路268弄,121.441242,31.19461328,1,70,地产小区,wgs84,
虹口区九龙路473号,121.4871756,31.25393224,1,80,门址,wgs84,
静安区太阳山路78弄,121.4574685,31.25132286,1,80,门址,wgs84,
宝山区虎林路688号,121.4481189,31.34583033,1,80,门址,wgs84,
浦东新区高科西路2763弄,121.5492229,31.19266899,1,80,门址,wgs84,
徐汇区长桥新村,121.4359892,31.13975531,1,70,地产小区,wgs84,
黄浦区牛庄路745号,121.4714389,31.23920002,1,80,门址,wgs84,
浦东新区北蔡镇卫行村沈家队沈家宅,121.5765558,31.16272952,,50,村庄,wgs84,
静安区交城路229弄,121.4252833,31.29567557,1,70,地产小区,wgs84,
黄浦区保屯路44号,121.4854446,31.20820385,1,80,门址,wgs84,
徐汇区吴兴路219号,121.4402253,31.20344547,1,80,门址,wgs84,
静安区大统路1038号,121.4544811,31.25806387,1,80,门址,wgs84,
徐汇区桂林东街28弄,121.419165,31.15734365,1,70,地产小区,wgs84,
徐汇区五原路96弄,121.4426745,31.21501608,1,80,门址,wgs84,
长宁区仙霞路486弄,121.3867721,31.20744754,1,70,地产小区,wgs84,
静安区老沪太路197弄,121.4492077,31.27009898,1,80,餐饮,wgs84,
宝山区罗盛路588号,121.3641621,31.43558752,1,80,门址,wgs84,
静安区余姚路608弄,121.4319101,31.22363259,1,70,地产小区,wgs84,
闵行区吴中路1969号,121.3418603,31.16432846,,30,道路,wgs84,
闵行区浦航路718弄,121.5300487,31.04405083,,50,NoClass,wgs84,
浦东新区西门路450弄,121.7343182,31.04895074,1,70,地产小区,wgs84,
浦东新区川沙路1258号,121.6739404,31.26334073,1,80,门址,wgs84,
黄浦区广西北路515号,121.4717415,31.23955872,1,80,门址,wgs84,
青浦区涞港路,121.3026875,31.19187549,,30,道路,wgs84,
嘉定区金沙江路2788弄,121.3573159,31.24286954,1,75,楼号,wgs84,
宝山区通河路535号,121.4412526,31.33905879,1,80,门址,wgs84,
虹口区沽源路107号,121.4732211,31.30374512,1,80,门址,wgs84,
浦东新区赵高路950弄,121.6260278,31.31240135,1,75,楼号,wgs84,
闵行区曹建路191号,121.4348161,31.09359411,1,80,门址,wgs84,
宝山区国权北路297弄,121.4913265,31.32215265,,30,道路,wgs84,
浦东新区川环南路579弄,121.6978194,31.18941309,,50,NoClass,wgs84,
浦东新区周浦镇民治村,121.6251431,31.11360666,,50,村庄,wgs84,
嘉定区临夏路98弄,121.3325062,31.26027301,1,70,地产小区,wgs84,
浦东新区合庆镇前哨村包家宅,121.7532811,31.20213863,,50,村庄,wgs84,
静安区场中路2155弄,121.445787,31.30771239,1,70,生活服务,wgs84,
虹口区四川北路1549号,121.4787385,31.25775454,1,80,门址,wgs84,
松江区北厍路116号,121.1336025,30.9434344,1,80,门址,wgs84,
松江区明中路1800弄,121.3161002,31.07635985,1,70,地产小区,wgs84,
杨浦区政立路55弄,121.4978429,31.31166826,1,70,地产小区,wgs84,
浦东新区昌里路357号,121.4854332,31.17545877,1,80,门址,wgs84,
浦东新区张江镇劳动村沈家宅,121.6280449,31.17219751,,50,NoClass,wgs84,
闵行区虹梅路999弄,121.3973457,31.15702164,1,80,门址,wgs84,
黄浦区顺昌路532号,121.4748221,31.21429926,1,80,门址,wgs84,
浦东新区川沙新镇砖桥村,121.6969791,31.19824226,,30,道路,wgs84,
虹口区中山北一路288号,121.475278,31.27925692,1,80,门址,wgs84,
黄浦区梦花街34号,121.4846027,31.22138543,1,80,门址,wgs84,
黄浦区长乐路117号,121.4629158,31.22374667,1,80,门址,wgs84,
静安区三泉路717弄,121.4353269,31.31557083,1,70,地产小区,wgs84,
静安区京江路211号,121.4596353,31.250601,1,80,门址,wgs84,
浦东新区杨桥村东计队西计家宅,121.7106667,31.09757004,,50,村庄,wgs84,
松江区泖亭路188弄,121.2962962,30.9998131,1,80,门址,wgs84,
杨浦区殷行路148号,121.5388417,31.33027296,1,80,门址,wgs84,
松江区沪亭北路338弄,121.3137749,31.14641469,,50,NoClass,wgs84,
黄浦区瑞金二路68号,121.460158,31.21749932,1,80,门址,wgs84,
黄浦区车站东路195号,121.4782089,31.22669317,,30,道路,wgs84,
虹口区瑞虹路41弄,121.4941434,31.26224268,1,80,门址,wgs84,
嘉定区双单路德立路西北工地,121.2738709,31.33669421,,30,道路,wgs84,
静安区愚园路1号,121.4418971,31.22674014,1,80,门址,wgs84,
黄浦区青岛路41号,121.4639915,31.23927847,1,80,门址,wgs84,
黄浦区蓬莱路178号,121.4868255,31.2201386,1,80,门址,wgs84,
浦东新区芳华路673弄,121.5588634,31.19951121,1,80,门址,wgs84,
浦东新区周浦镇北庄村窑港,121.6618866,31.10418182,,50,村庄,wgs84,
徐汇区喜泰路253号,121.4474908,31.1461114,1,80,门址,wgs84,
宝山区呼兰西路60弄,121.431022,31.34113281,1,80,门址,wgs84,
杨浦区许昌路1469弄,121.5091739,31.27243895,1,80,门址,wgs84,
闵行区金光路669号,121.271211,31.2030479,1,80,门址,wgs84,
杨浦区杨树浦路3061弄,121.5550469,31.27601468,,50,NoClass,wgs84,
宝山区天家路200弄,121.3334808,31.38515816,,50,NoClass,wgs84,
静安区芷江西路226号,121.4579241,31.25948027,1,80,门址,wgs84,
杨浦区隆昌路203号,121.544491,31.27133766,1,80,门址,wgs84,
宝山区罗智路258弄,121.3403968,31.3879915,,30,道路,wgs84,
黄浦区新昌路296号,121.4637211,31.23790625,1,80,门址,wgs84,
闵行区沪闵路7966号,121.4030079,31.13935041,1,80,门址,wgs84,
虹口区唐山路74号,121.4932519,31.25382655,1,80,门址,wgs84,
杨浦区锦西路150弄,121.5048985,31.27681633,1,80,门址,wgs84,
虹口区逸仙路458弄,121.4814885,31.30360114,1,80,门址,wgs84,
浦东新区周秀路398弄,121.6022137,31.09462126,1,70,地产小区,wgs84,
静安区万航渡路212弄,121.4356827,31.22697178,,50,NoClass,wgs84,
静安区平顺路116号,121.4479599,31.31311861,1,80,门址,wgs84,
闵行区中沟路400弄,121.3899023,31.06992858,,50,NoClass,wgs84,
静安区万航渡路269弄,121.4345562,31.2280139,1,80,门址,wgs84,
黄浦区局门路669号,121.4796002,31.19537347,,30,道路,wgs84,
闵行区景联路41号,121.448672,31.10284154,1,80,门址,wgs84,
松江区新宅村,121.1363613,31.07590342,,50,村庄,wgs84,
浦东新区庆丰村龚家宅,121.7128039,31.24321325,,50,村庄,wgs84,
静安区愚园路349号,121.4372631,31.22491124,1,80,门址,wgs84,
虹口区大连西路250弄,121.4835997,31.27880229,1,80,门址,wgs84,
虹口区车站北路732弄,121.4618702,31.29920816,1,80,门址,wgs84,
嘉定区胜利街175弄,121.2949318,31.28966531,,30,道路,wgs84,
闵行区澄江路605号,121.452093,31.08549809,1,80,门址,wgs84,
普陀区清涧路39弄,121.3838421,31.26397356,1,80,门址,wgs84,
虹口区场中路4弄,121.5005837,31.26611817,,20,区县,wgs84,
浦东新区南码头路44号,121.5017208,31.20328952,1,80,门址,wgs84,
虹口区横浜路47号,121.4760106,31.26440386,1,80,门址,wgs84,
普陀区华阴路99号,121.4410106,31.26273515,1,80,门址,wgs84,
松江区书林路600弄,121.315063,31.04372978,,30,道路,wgs84,
普陀区兰溪路272号,121.3975988,31.24879112,,30,道路,wgs84,
浦东新区高青路2861弄,121.5242974,31.16357882,,50,NoClass,wgs84,
杨浦区国权北路10弄,121.4912559,31.31189128,1,70,地产小区,wgs84,
黄浦区鲁班路400弄,121.4710847,31.20255599,1,80,门址,wgs84,
浦东新区大洪村饶家宅,121.7325114,31.19426406,1,70,地产小区,wgs84,
徐汇区日晖新村,121.4323841,31.19008224,,20,区县,wgs84,
浦东新区德平路80弄,121.556549,31.25240227,1,80,门址,wgs84,
浦东新区祝桥镇义泓村果园,121.8330779,31.07830724,,50,村庄,wgs84,
静安区永兴路525号,121.463668,31.25327553,1,80,门址,wgs84,
杨浦区松花江路337号,121.5260315,31.29191282,1,80,门址,wgs84,
黄浦区巨鹿路299号,121.4571656,31.22483535,1,80,门址,wgs84,
黄浦区瞿溪路1240弄,121.4670201,31.19846278,1,70,地产小区,wgs84,
宝山区春雷路136弄,121.429147,31.40664227,,50,NoClass,wgs84,
徐汇区桂林西街14弄,121.413778,31.15785442,1,80,门址,wgs84,
普陀区梅川路1333弄,121.3729875,31.24654676,,50,NoClass,wgs84,
黄浦区山西南路294号,121.4770938,31.24073884,1,80,门址,wgs84,
虹口区天水路172号,121.4852881,31.26182686,1,80,门址,wgs84,
黄浦区贵州路133号,121.4715219,31.23837085,1,80,门址,wgs84,
浦东新区源深路836号,121.5319591,31.22947395,1,80,门址,wgs84,
浦东新区上南路3500弄,121.4979174,31.15719761,1,75,购物,wgs84,
杨浦区共青路19弄,121.557877,31.28300916,,30,道路,wgs84,
浦东新区青四村龚家宅,121.732707,31.23042956,,50,村庄,wgs84,
杨浦区平凉路1350弄,121.5329634,31.26509688,1,80,门址,wgs84,
杨浦区控江路896弄,121.5288372,31.28413261,1,70,地产小区,wgs84,
浦东新区城西路195弄,121.7443194,31.04996802,1,80,门址,wgs84,
黄浦区宁波路641弄,121.4714697,31.23832239,1,70,地产小区,wgs84,
宝山区祁连一村,121.3759368,31.31516878,1,70,地产小区,wgs84,
浦东新区王桥街41弄,121.6958762,31.20473257,1,80,门址,wgs84,
松江区古楼公路1458弄,121.2454129,31.10736411,,30,道路,wgs84,
杨浦区长阳路2121弄,121.5356793,31.27448363,1,70,地产小区,wgs84,
黄浦区金陵东路300弄,121.4792024,31.2308741,1,80,门址,wgs84,
浦东新区长清路807弄,121.4872585,31.15737746,1,75,楼号,wgs84,
黄浦区学西街20弄,121.4823693,31.21953166,,30,道路,wgs84,
虹口区广灵二路29号,121.4763129,31.28590815,1,80,门址,wgs84,
浦东新区光明村,121.6541907,31.29259975,,50,村庄,wgs84,
虹口区东余杭路988号,121.5006646,31.25963121,1,80,门址,wgs84,
浦东新区曹路镇民建村南邵家宅,121.643771,31.27655494,,50,村庄,wgs84,
静安区陕西北路73号,121.4517703,31.22686696,1,80,门址,wgs84,
浦东新区勤益村南顾家宅,121.7059458,31.21125325,,50,村庄,wgs84,
宝山区绥化路201弄,121.4271461,31.40816355,,50,NoClass,wgs84,
嘉定区沪宜公路1866弄,121.2855269,31.32674649,1,70,地产小区,wgs84,
浦东新区牌楼东路528弄,121.6522654,31.02780689,1,80,门址,wgs84,
嘉定区靖远路1288弄,121.3206667,31.25743126,1,75,楼号,wgs84,
虹口区曲阳路594号,121.4865477,31.28367691,1,80,门址,wgs84,
闵行区宾川路405号,121.4042695,31.00559791,1,80,门址,wgs84,
浦东新区沈家弄路870弄,121.5412336,31.24065357,,50,旅游景点,wgs84,
黄浦区汝南街76号,121.4796443,31.2046609,1,80,门址,wgs84,
虹口区同心路28弄,121.4742413,31.26789586,1,80,门址,wgs84,
杨浦区包头路50号,121.5342636,31.32104867,,30,道路,wgs84,
虹口区长阳路380号,121.5062746,31.25787201,,30,道路,wgs84,
浦东新区川沙新镇太平村张家宅,121.7232725,31.19359113,1,70,地产小区,wgs84,
宝山区永乐路115弄,121.4981347,31.39885053,1,80,门址,wgs84,
黄浦区江阴路156号,121.4631287,31.23132052,1,80,门址,wgs84,
闵行区滨浦新苑八村,121.4908288,31.06545243,1,70,地产小区,wgs84,
黄浦区永泰街12号,121.4929554,31.21828084,1,80,门址,wgs84,
闵行区富卓路789弄,121.3759508,31.02712844,1,80,门址,wgs84,
浦东新区烟墩村,121.8132336,31.02355244,,50,村庄,wgs84,
黄浦区车站支路9弄,121.4805148,31.23347475,,20,区县,wgs84,
浦东新区康弘路508弄,121.5962107,31.12357349,1,75,楼号,wgs84,
松江区三庄路155弄,121.2976329,31.01889375,,50,NoClass,wgs84,
长宁区玛瑙路300号,121.3988924,31.19818645,1,80,门址,wgs84,
宝山区泗东路41号,121.4796532,31.37133852,1,80,门址,wgs84,
闵行区华漕西街,121.3208467,31.22569281,,30,道路,wgs84,
宝山区杨泰路688号,121.4326974,31.3833703,1,80,门址,wgs84,
闵行区江航路378弄,121.531842,31.05388619,,50,NoClass,wgs84,
长宁区仙霞西路500弄,121.3588631,31.21213652,1,80,门址,wgs84,
徐汇区田林路90弄,121.4145595,31.1727292,1,75,购物,wgs84,
黄浦区老道前街70弄,121.4826198,31.22044799,,30,道路,wgs84,
闵行区林恒路18号,121.4959086,31.11757501,1,80,门址,wgs84,
浦东新区成山路2388弄,121.504826,31.17464043,,30,道路,wgs84,
浦东新区唐镇机口村杨家宅,121.6570344,31.2171244,,50,村庄,wgs84,
虹口区梧州路117号,121.4889797,31.25468051,1,80,门址,wgs84,
黄浦区中山南一路204号,121.4836578,31.2027093,1,80,门址,wgs84,
虹口区东宝兴路123弄,121.4609338,31.26101424,1,70,地产小区,wgs84,
黄浦区斜土路167号,121.4775781,31.20817305,1,80,门址,wgs84,
长宁区新华路329弄,121.4210331,31.20166813,1,75,购物,wgs84,
静安区保德路921弄,121.4432,31.31654539,1,80,门址,wgs84,
黄浦区鲁班路778弄,121.4746613,31.19418822,1,80,门址,wgs84,
浦东新区金闻路28号生活区,121.7672727,31.12421205,1,80,门址,wgs84,
徐汇区乌鲁木齐中路160号,121.4406148,31.21571503,1,80,门址,wgs84,
徐汇区斜土路2171号,121.4447094,31.19518419,1,80,门址,wgs84,
浦东新区陈行村张家宅,121.7145546,31.16832603,,50,村庄,wgs84,
宝山区虎林路888号,121.4475765,31.34892572,1,80,门址,wgs84,
静安区汾西路261弄,121.4573124,31.31519586,1,80,门址,wgs84,
嘉定区星华公路781号,121.3001149,31.25551047,1,80,门址,wgs84,
黄浦区薛家浜路159弄,121.4987857,31.2138033,1,70,地产小区,wgs84,
杨浦区敦化路4弄,121.5216579,31.26168098,,20,区县,wgs84,
黄浦区曹家街62号,121.481874,31.22061687,1,80,门址,wgs84,
徐汇区田林九村,121.4172759,31.17467472,1,70,地产小区,wgs84,
闵行区北青公路2055弄58支弄,121.3115896,31.19813238,,50,NoClass,wgs84,
松江区九泾路680弄,121.2892174,31.14180537,1,80,门址,wgs84,
浦东新区巨野路197弄,121.5412487,31.24395448,1,80,门址,wgs84,
黄浦区迎勋路69弄,121.4871648,31.21519971,,30,道路,wgs84,
宝山区园泰路396号,121.3338131,31.30536972,1,80,门址,wgs84,
黄浦区淮海中路925弄,121.4651119,31.22316569,,30,道路,wgs84,
宝山区共富路618号,121.4161713,31.3492712,1,80,门址,wgs84,
浦东新区严民路280弄,121.526353,31.19003675,1,80,门址,wgs84,
宝山区铁力路1380号,121.4609603,31.39563034,1,80,门址,wgs84,
黄浦区四牌楼路87号,121.49098,31.22604193,1,80,门址,wgs84,
虹口区梧州路89号,121.4889917,31.25434561,1,80,门址,wgs84,
宝山区呼玛路577号,121.4428036,31.34078745,,30,道路,wgs84,
杨浦区双阳路413号,121.5278555,31.28401044,1,80,门址,wgs84,
徐汇区复兴中路1195号,121.4554807,31.21414814,1,80,门址,wgs84,
徐汇区虹桥路128号,121.4296056,31.19261802,1,80,门址,wgs84,
松江区乐都路233弄,121.2294507,31.01562274,1,80,门址,wgs84,
杨浦区闸殷路1589号,121.5071682,31.31448326,1,80,门址,wgs84,
浦东新区御水路150弄,121.5682398,31.16337785,1,80,门址,wgs84,
闵行区虹莘路1638弄,121.3786576,31.13357585,1,80,门址,wgs84,
松江区北松公路4562号,121.3149236,31.01667898,1,80,门址,wgs84,
普陀区礼泉路689弄,121.4038207,31.25560902,1,75,楼号,wgs84,
黄浦区顺昌路503号,121.4749322,31.21485423,1,80,门址,wgs84,
宝山区环镇南路1506弄,121.3960177,31.29607914,,30,道路,wgs84,
杨浦区虬江码头路2号,121.5510052,31.31160818,1,80,门址,wgs84,
宝山区华和路600弄,121.3934537,31.2935924,1,80,门址,wgs84,
浦东新区临沂路339弄,121.5386815,31.1728778,,30,道路,wgs84,
松江区同乐路354号,121.2657316,31.08729166,1,80,门址,wgs84,
静安区康定路818弄,121.4368675,31.23345931,1,80,门址,wgs84,
浦东新区川周路8828弄,121.7028764,31.18780678,1,75,楼号,wgs84,
浦东新区金葵路945弄,121.6223065,31.24163137,1,75,购物,wgs84,
宝山区美丹路18弄,121.3482648,31.40815438,1,80,门址,wgs84,
松江区松金公路10034号,121.2322019,30.98276313,,30,道路,wgs84,
闵行区青杉路169弄,121.3612896,31.17738645,1,80,门址,wgs84,
宝山区淞滨路711弄,121.4896379,31.37431331,,30,道路,wgs84,
浦东新区菏泽路287弄,121.5888685,31.27104172,1,75,楼号,wgs84,
浦东新区五莲路100弄,121.5744246,31.27732409,1,75,楼号,wgs84,
浦东新区浦东南路3649弄,121.5013274,31.19142829,1,80,门址,wgs84,
宝山区通南路414号,121.4633674,31.33746075,1,80,门址,wgs84,
徐汇区天钥桥南路44号,121.4508691,31.15539862,,30,道路,wgs84,
虹口区西江湾路122号,121.4739793,31.26897523,1,80,门址,wgs84,
闵行区西新路15弄,121.3646472,31.03059075,1,80,门址,wgs84,
虹口区甜爱路32号,121.4787523,31.2682259,1,80,门址,wgs84,
闵行区曹建支路11弄,121.4334527,31.09269168,,30,道路,wgs84,
杨浦区长阳路812号,121.5153242,31.26463019,1,80,门址,wgs84,
普陀区长寿路818弄,121.4261228,31.23792099,1,80,门址,wgs84,
嘉定区宝安公路4188号工地,121.2236503,31.32035385,1,80,门址,wgs84,
浦东新区川周公路4293弄,121.5778194,31.12250251,1,70,地产小区,wgs84,
静安区新丰路518弄,121.4376432,31.23988951,,50,NoClass,wgs84,
宝山区市台路400号,121.3475471,31.31713128,1,80,门址,wgs84,
虹口区曲阳路594弄,121.4864926,31.28368175,1,75,楼号,wgs84,
徐汇区桂江路77弄,121.4240288,31.16776507,1,70,地产小区,wgs84,
虹口区四川北路2081号,121.4781938,31.2665359,1,80,门址,wgs84,
松江区东栅路156弄,121.1134998,30.98903597,1,70,地产小区,wgs84,
浦东新区齐河路438弄,121.5031858,31.18216275,1,80,门址,wgs84,
黄浦区先棉祠街53号,121.486671,31.2194211,1,80,门址,wgs84,
闵行区恒南路689号,121.5115062,31.07590287,1,80,门址,wgs84,
普陀区东新支路55弄,121.420281,31.2446499,1,70,地产小区,wgs84,
长宁区遵义南路8号,121.4020606,31.20545779,1,80,门址,wgs84,
黄浦区牛庄路740号,121.4714034,31.23931787,1,80,门址,wgs84,
黄浦区兴安路153号,121.4659977,31.22282109,1,80,门址,wgs84,
宝山区丰皓路658弄,121.384561,31.30821077,1,70,地产小区,wgs84,
浦东新区曹路镇新星村东新港,121.7047338,31.25573521,,30,道路,wgs84,
浦东新区沪南路3150弄,121.5616077,31.1243861,1,80,门址,wgs84,
静安区光复路921弄,121.4550368,31.2414291,,30,道路,wgs84,
宝山区聚丰园路500弄,121.3725531,31.31604301,,50,NoClass,wgs84,
杨浦区国年路102弄,121.5030355,31.29471665,1,80,门址,wgs84,
杨浦区顺平路152,121.5356614,31.27795848,,30,道路,wgs84,
浦东新区御水路199弄,121.5700098,31.16251472,1,80,门址,wgs84,
宝山区富联路222号,121.4079058,31.35610278,1,80,门址,wgs84,
浦东新区金钻路398弄,121.6665785,31.28894955,,50,NoClass,wgs84,
浦东新区临沂路301弄,121.5055504,31.19314571,1,75,楼号,wgs84,
闵行区涞亭北路888号,121.3175142,31.16093077,1,80,门址,wgs84,
浦东新区上南路7992弄,121.5703463,31.12097977,,50,NoClass,wgs84,
黄浦区普育西支路64弄,121.488012,31.21407892,,30,道路,wgs84,
杨浦区国宾路91号,121.5074449,31.30398726,1,80,门址,wgs84,
虹口区大连路23号,121.5036857,31.2651377,,30,道路,wgs84,
青浦区南门街,121.1083585,31.14529142,,30,道路,wgs84,
黄浦区淡水路256弄,121.4686837,31.21853453,1,80,门址,wgs84,
静安区新闸路1729号,121.4400941,31.23032455,1,80,门址,wgs84,
闵行区老沪闵路1111弄,121.4274455,31.16412041,1,70,地产小区,wgs84,
杨浦区殷行路302号,121.5350568,31.33044187,1,80,门址,wgs84,
浦东新区济阳路65弄,121.4772833,31.16922814,1,75,楼号,wgs84,
浦东新区虹盛路250弄,121.6766472,31.24334277,1,80,门址,wgs84,
宝山区新沪路1208号,121.4159174,31.27820222,1,80,门址,wgs84,
浦东新区昌邑路55弄,121.5081442,31.24239405,1,75,宾馆,wgs84,
虹口区奎照路790弄,121.4641732,31.30136875,1,70,地产小区,wgs84,
浦东新区航梅路526弄,121.5760615,31.0261724,1,70,地产小区,wgs84,
嘉定区安晓路318号,121.2305096,31.31739531,1,80,门址,wgs84,
徐汇区小木桥路518弄,121.4563625,31.19402979,,50,NoClass,wgs84,
杨浦区济宁路479弄,121.5232157,31.26582966,1,80,门址,wgs84,
徐汇区日晖一村,121.460624,31.19674566,1,70,地产小区,wgs84,
闵行区三鲁公路2690弄,121.5219849,31.07142045,,50,NoClass,wgs84,
黄浦区天柱山路17弄,121.4891253,31.21315761,1,80,门址,wgs84,
青浦区朝阳村,121.1146972,31.17743879,,50,村庄,wgs84,
杨浦区许昌路630弄,121.5193904,31.26107482,1,80,门址,wgs84,
普陀区红棉路311弄,121.3461277,31.28498802,1,70,政府机构,wgs84,
闵行区盐铁塘路272弄,121.5055561,31.03746447,,50,NoClass,wgs84,
普陀区常德路1344弄,121.4294357,31.24438438,1,80,门址,wgs84,
黄浦区百翎路5号,121.4866778,31.22831361,1,80,门址,wgs84,
黄浦区宁波路636号,121.4710631,31.23851655,1,80,门址,wgs84,
宝山区塔虹路169号,121.4047304,31.42562589,,30,道路,wgs84,
浦东新区御桥路1679弄,121.5673915,31.16155394,1,80,门址,wgs84,
浦东新区蓝村路30弄,121.5274399,31.21345778,1,80,门址,wgs84,
虹口区榆兰新村,121.5010388,31.27097037,1,70,地产小区,wgs84,
静安区升平街79弄,121.4574904,31.22773477,1,80,门址,wgs84,
黄浦区半淞园路585弄,121.4897123,31.2018592,1,70,政府机构,wgs84,
静安区愚园路433弄,121.4359433,31.22341952,1,75,楼号,wgs84,
闵行区平南三村,121.3869023,31.15345924,1,70,地产小区,wgs84,
静安区华山路285弄,121.4418843,31.22116676,1,80,门址,wgs84,
虹口区水电路200号,121.470117,31.27714408,1,80,门址,wgs84,
浦东新区云莲路415弄,121.5022333,31.17972007,1,80,门址,wgs84,
静安区延长路99弄,121.4576713,31.27656775,1,70,地产小区,wgs84,
浦东新区石家街116号-121号,121.5761453,31.34644063,1,80,门址,wgs84,
宝山区殷高西路555号,121.4659258,31.32219492,1,80,门址,wgs84,
浦东新区邵村村,121.7286795,31.01045597,,50,村庄,wgs84,
黄浦区永年路126号,121.4745569,31.21421101,1,80,门址,wgs84,
黄浦区梦花街115号,121.4831042,31.22085114,1,80,门址,wgs84,
静安区平型关路471号,121.4577267,31.27494953,1,80,门址,wgs84,
黄浦区新昌路477弄,121.462098,31.2401309,,50,NoClass,wgs84,
杨浦区鞍山八村,121.5067578,31.28226568,1,70,地产小区,wgs84,
静安区康定路950弄,121.4335569,31.23373709,1,70,地产小区,wgs84,
静安区石门二路483号,121.454176,31.23848975,1,80,门址,wgs84,
黄浦区局门后路27号,121.4762379,31.21068607,1,80,门址,wgs84,
静安区康定路426号,121.4436451,31.23618643,1,80,门址,wgs84,
杨浦区佳木斯路185弄,121.5372024,31.30046981,1,80,门址,wgs84,
黄浦区乔家路19弄,121.4934113,31.21887283,1,80,门址,wgs84,
虹口区四川北路1878弄,121.4792085,31.26378614,,30,道路,wgs84,
黄浦区蓬莱路301号,121.484737,31.21925298,1,80,门址,wgs84,
黄浦区北京东路432号,121.4770251,31.24215765,1,80,门址,wgs84,
浦东新区博山东路553弄,121.5672741,31.25740628,1,80,门址,wgs84,
杨浦区双辽路200弄,121.5118723,31.27469855,1,80,门址,wgs84,
徐汇区龙华西路535弄,121.4383412,31.17847832,1,80,门址,wgs84,
黄浦区庄家街76号,121.4839981,31.22196815,1,80,门址,wgs84,
普陀区胶州路1077弄,121.4300711,31.24116468,,50,NoClass,wgs84,
杨浦区黄兴路1818号,121.5154543,31.29407013,1,80,门址,wgs84,
闵行区澄江路1518号,121.4322984,31.08140709,1,80,门址,wgs84,
虹口区东汉阳路309弄,121.4798832,31.2778253,1,70,地产小区,wgs84,
杨浦区水电新村,121.522792,31.33809463,1,70,地产小区,wgs84,
宝山区铁山路269号,121.4556412,31.38163964,1,80,门址,wgs84,
浦东新区商城路918弄,121.5178406,31.23405019,1,80,门址,wgs84,
虹口区临平北路12号,121.4889727,31.26496232,1,80,门址,wgs84,
浦东新区平桥村,121.7364625,30.96868597,,30,道路,wgs84,
黄浦区成都南路110号,121.4630792,31.2236637,1,80,门址,wgs84,
浦东新区祝桥镇果园村,121.8270475,31.09279662,,50,村庄,wgs84,
浦东新区奉新路132号,121.6406328,31.02354358,1,80,门址,wgs84,
浦东新区菏泽路828弄,121.5918824,31.26429662,1,70,政府机构,wgs84,
嘉定区震川路60号,121.1542604,31.3095834,1,80,门址,wgs84,
徐汇区中山西路2525号,121.4295762,31.18287415,1,80,门址,wgs84,
徐汇区复兴中路1325号,121.448724,31.21334827,1,80,门址,wgs84,
浦东新区高桥镇陆凌村陆家宅,121.5583362,31.34842101,,50,NoClass,wgs84,
浦东新区海阳路云台路交界口工地生活区,121.4993328,31.179014,,30,道路,wgs84,
浦东新区懿德村康家队康家宅,121.5118803,31.12133223,,50,村庄,wgs84,
虹口区嘉兴路337号,121.4873469,31.25854688,1,80,门址,wgs84,
徐汇区大木桥路450弄,121.4575308,31.19802046,1,70,地产小区,wgs84,
浦东新区杨新路281弄,121.4841665,31.16367903,1,80,门址,wgs84,
徐汇区襄阳南路328号,121.4531846,31.21138392,1,80,门址,wgs84,
嘉定区嘉安公路1735弄,121.2001236,31.34571582,,30,道路,wgs84,
静安区黄山路250号,121.4639132,31.26812298,1,80,门址,wgs84,
浦东新区兰亭路孙浦路交界口工地生活区,121.6538441,31.18792437,,30,道路,wgs84,
松江区新飞路961号一号楼,121.3129485,31.03358447,1,80,门址,wgs84,
普陀区宁夏路353弄,121.414588,31.23533534,1,75,楼号,wgs84,
嘉定区海川路77弄,121.3448014,31.26608998,,30,道路,wgs84,
浦东新区浦东南路1700弄,121.5141282,31.22006592,1,80,门址,wgs84,
松江区宝胜路18号,121.2635273,31.02532557,1,80,门址,wgs84,
静安区塘沽路747弄,121.4768196,31.24830616,1,80,门址,wgs84,
松江区涞亭南路289弄,121.3324489,31.13709537,,50,NoClass,wgs84,
虹口区四川北路1274号,121.4801929,31.25272985,1,80,门址,wgs84,
宝山区南弄街9号,121.3401942,31.4115413,1,80,门址,wgs84,
黄浦区薛家浜路218号,121.497681,31.21323115,1,80,门址,wgs84,
闵行区新镇路983弄,121.357302,31.15246575,,30,道路,wgs84,
黄浦区北京东路159号,121.482541,31.24259035,1,80,门址,wgs84,
黄浦区蓬莱路209号,121.4862684,31.22005365,1,80,门址,wgs84,
浦东新区川沙新镇八灶村郭家宅,121.7132618,31.15834159,,50,村庄,wgs84,
浦东新区龙桥村南杨家宅,121.6227262,31.31771145,,50,村庄,wgs84,
静安区洛川东路99号,121.4605568,31.27404366,1,80,门址,wgs84,
浦东新区环庆中路323弄,121.7193792,31.23648712,1,70,地产小区,wgs84,
黄浦区西凌家宅路27弄,121.4827553,31.20666481,1,75,楼号,wgs84,
浦东新区下南路320弄,121.5371771,31.1715127,1,80,门址,wgs84,
浦东新区运通路728弄,121.6981227,31.20512284,1,80,门址,wgs84,
浦东新区栖山路1899弄,121.5694769,31.26389281,,50,NoClass,wgs84,
虹口区宝安路296号,121.4821573,31.26932313,1,80,门址,wgs84,
浦东新区林展路278弄,121.5019008,31.12923672,1,80,门址,wgs84,
嘉定区金耀路555弄,121.3027538,31.25009754,1,75,购物,wgs84,
浦东新区青桐路409弄,121.6185856,31.21679854,1,80,门址,wgs84,
浦东新区高东镇先锋村王朱家宅,121.6263196,31.30703369,1,70,地产小区,wgs84,
闵行区颛建路208号,121.3915235,31.0709663,1,80,门址,wgs84,
黄浦区梦花街31号,121.4844298,31.22168458,1,80,门址,wgs84,
静安区新马路218号,121.4639348,31.25043306,1,80,门址,wgs84,
黄浦区先棉祠街59号,121.4865516,31.21920085,1,80,门址,wgs84,
黄浦区西姚家弄12号,121.4925375,31.2247476,1,80,门址,wgs84,
浦东新区潍坊路168弄,121.5231437,31.22806197,1,80,门址,wgs84,
黄浦区青岛路21号,121.4641904,31.23941086,1,80,门址,wgs84,
嘉定区金运路678号,121.316116,31.24637692,1,80,门址,wgs84,
静安区华山路421弄,121.4410326,31.21974987,,30,道路,wgs84,
静安区天目西路218号,121.4521002,31.24657959,1,80,门址,wgs84,
虹口区四川北路75号,121.4803739,31.2478956,1,80,门址,wgs84,
松江区范家村,121.1856193,30.94613924,,50,村庄,wgs84,
静安区宝源路147号,121.4748903,31.2580241,1,80,门址,wgs84,
浦东新区唐镇民丰村西曹家宅,121.6378366,31.21053174,,50,村庄,wgs84,
浦东新区康沈路1938弄,121.5742969,31.11174784,,50,NoClass,wgs84,
静安区平型关路305弄,121.4604408,31.27237809,1,70,地产小区,wgs84,
浦东新区一心村徐家宅,121.685935,31.25388473,,50,村庄,wgs84,
闵行区宝铭路88弄,121.362524,31.14120729,1,80,门址,wgs84,
虹口区四平路333号,121.4868861,31.26797953,1,80,门址,wgs84,
徐汇区东平路2号,121.4460205,31.21073414,1,80,门址,wgs84,
闵行区闵驰二路59弄,121.5343815,31.04593754,1,75,楼号,wgs84,
长宁区武定西路1371弄,121.421197,31.22202473,1,80,门址,wgs84,
杨浦区国福路50弄,121.5034394,31.29763437,,50,NoClass,wgs84,
虹口区新广路251弄,121.4771871,31.25768195,1,80,门址,wgs84,
徐汇区辛耕路100弄,121.4381671,31.19455687,,50,NoClass,wgs84,
虹口区溧阳路1281号,121.4823061,31.26526238,1,80,门址,wgs84,
松江区涞亭南路1600弄,121.339645,31.11872725,1,80,门址,wgs84,
徐汇区宛平南路144弄,121.4399089,31.196404,1,80,门址,wgs84,
宝山区海江路667弄,121.485391,31.3979881,,50,NoClass,wgs84,
黄浦区斜土支路5号,121.4796285,31.20799805,1,80,门址,wgs84,
普陀区绥德路607号,121.3667967,31.26736502,1,80,门址,wgs84,
虹口区飞虹路25弄,121.4972643,31.26433915,,30,道路,wgs84,
虹口区银欣路38号,121.4869935,31.2642457,1,80,门址,wgs84,
徐汇区龙漕路51弄,121.4323824,31.1706522,1,80,门址,wgs84,
青浦区徐灵路300弄,121.2880517,31.20045984,1,70,地产小区,wgs84,
浦东新区长岛路825弄,121.5844888,31.26544576,1,80,门址,wgs84,
黄浦区淡水路110号,121.468046,31.22273908,1,80,门址,wgs84,
黄浦区静修路38号,121.4834781,31.22202496,1,80,门址,wgs84,
崇明区先丰村,121.6814344,31.39278085,,50,村庄,wgs84,
杨浦区松花江路2600号,121.529885,31.29355723,,30,道路,wgs84,
松江区新北街389号,121.30868,31.06667129,1,80,门址,wgs84,
黄浦区黄家阙路76弄,121.4829913,31.21661579,1,75,楼号,wgs84,
杨浦区佳木斯路258号,121.5351124,31.29967817,1,80,门址,wgs84,
普陀区新村路170弄,121.4328358,31.2686256,1,80,门址,wgs84,
徐汇区徐虹北路23号,121.4232972,31.19233101,1,80,门址,wgs84,
松江区民益路26号,121.2897996,31.04885323,1,80,门址,wgs84,
徐汇区宜山路518弄,121.4195441,31.18436493,1,80,餐饮,wgs84,
浦东新区三林镇临江村泰保队泰保堂,121.4738657,31.12012899,1,70,医疗,wgs84,
浦东新区红二村,121.7774349,31.09149164,,50,村庄,wgs84,
普陀区泾阳路129弄,121.3595877,31.24040852,1,80,门址,wgs84,
浦东新区后长街78号,121.4921495,31.16526539,1,80,门址,wgs84,
静安区广中西路818弄,121.4299619,31.27565964,1,70,地产小区,wgs84,
松江区长兴路596弄,121.3102954,31.08721408,,30,道路,wgs84,
普陀区长寿路569弄,121.4290134,31.23897023,1,75,楼号,wgs84,
宝山区潘泾路5777弄,121.3337476,31.48338523,,50,NoClass,wgs84,
浦东新区银山路181弄,121.5758288,31.24611409,1,80,门址,wgs84,
浦东新区川沙路4850弄,121.6923779,31.19997241,1,70,地产小区,wgs84,
嘉定区南新路471弄,121.2112475,31.42845371,1,80,门址,wgs84,
黄浦区西唐家弄113号,121.48974,31.22224339,,30,道路,wgs84,
青浦区商榻东西村,120.9364625,31.03930584,,50,村庄,wgs84,
虹口区天通庵路580号,121.4727661,31.26626777,,30,道路,wgs84,
嘉定区沪宜公路2800弄,121.2645037,31.35738263,,50,村庄,wgs84,
闵行区高兴路666弄,121.391386,31.11151248,1,70,教育,wgs84,
浦东新区曹路镇迅建村蔡家宅,121.6864166,31.28495006,1,70,地产小区,wgs84,
浦东新区泥城镇新泐村彭六,121.7998954,30.90246208,,50,村庄,wgs84,
宝山区顾陈路231弄,121.389308,31.34309636,1,75,楼号,wgs84,
嘉定区嘉安公路3333弄,121.1821006,31.33311393,1,80,门址,wgs84,
静安区止园路466号,121.4626789,31.26460366,1,80,门址,wgs84,
杨浦区控江七村,121.5277941,31.2851946,1,70,地产小区,wgs84,
徐汇区龙南六村,121.448384,31.1580056,1,70,地产小区,wgs84,
杨浦区长海二村,121.5256281,31.3163581,,50,NoClass,wgs84,
松江区沪亭南路501弄,121.3280549,31.12118884,,50,NoClass,wgs84,
宝山区南大路180弄,121.3946854,31.30200533,1,80,门址,wgs84,
长宁区虹桥路959弄,121.4142206,31.19884073,1,80,门址,wgs84,
浦东新区唐龙路诚礼路交界口工地生活区,121.6642424,31.22783684,,30,道路,wgs84,
浦东新区高东镇龙桥村南杨家宅,121.6227262,31.31771145,,50,村庄,wgs84,
闵行区颛兴路245弄,121.3936652,31.06671589,1,80,餐饮,wgs84,
虹口区西江湾路454弄,121.4746999,31.27377788,,30,道路,wgs84,
虹口区虹湾路313弄,121.4656586,31.31493333,1,70,地产小区,wgs84,
浦东新区联勤村秦家宅,121.5465264,31.169099,,50,村庄,wgs84,
黄浦区方浜西路59号,121.4780231,31.22312533,1,80,门址,wgs84,
宝山区石太路3512弄,121.3386662,31.43167235,1,80,门址,wgs84,
普陀区桃浦西路443弄,121.3877772,31.27447771,1,80,门址,wgs84,
静安区北京西路940号,121.452893,31.23348431,1,80,门址,wgs84,
闵行区莲花路2151弄,121.38494,31.17564247,1,80,门址,wgs84,
浦东新区祝桥镇卫民村,121.7368328,31.10045634,,50,村庄,wgs84,
黄浦区西藏南路1130号,121.4817867,31.21286036,1,80,门址,wgs84,
杨浦区国顺东路369号,121.5227035,31.29327743,1,80,门址,wgs84,
浦东新区唐镇前进村金家宅,121.6377727,31.21048682,,50,村庄,wgs84,
浦东新区花山路300弄,121.5650285,31.3480371,1,80,门址,wgs84,
浦东新区永宁东路531弄,121.7425962,30.96985962,1,70,地产小区,wgs84,
黄浦区丽园路881弄,121.4275984,31.21885871,1,70,地产小区,wgs84,
黄浦区静修路114弄,121.4828735,31.22067157,1,75,购物,wgs84,
浦东新区鹤鸣村,121.5898738,31.04658277,,50,村庄,wgs84,
浦东新区大众村陆家木行,121.6345882,31.22618585,,50,村庄,wgs84,
浦东新区杨新路20弄,121.486946,31.16520206,,30,道路,wgs84,
宝山区淞滨路77弄,121.4941882,31.37704042,1,70,地产小区,wgs84,
浦东新区新雅东路51弄,121.6834568,31.23936859,,30,道路,wgs84,
浦东新区百龙新村,121.612097,31.14380099,1,70,地产小区,wgs84,
浦东新区汇成路1245弄,121.7007424,31.03560188,1,70,地产小区,wgs84,
静安区新路10号,121.461055,31.25038643,1,80,门址,wgs84,
闵行区芦恒路378弄,121.4853514,31.11600517,,50,NoClass,wgs84,
静安区场中路2107弄,121.446983,31.30769911,1,80,门址,wgs84,
静安区保德路831弄,121.4461443,31.31718471,1,80,门址,wgs84,
松江区南乐路168号,121.2873466,31.026312,1,80,门址,wgs84,
闵行区同乐路158号,121.414684,31.12676082,1,80,门址,wgs84,
宝山区长江西路915号,121.4598805,31.34267576,1,80,门址,wgs84,
杨浦区周家嘴路2000弄,121.5112471,31.26813735,1,75,楼号,wgs84,
浦东新区锦安东路593弄,121.5348498,31.20152878,1,80,门址,wgs84,
宝山区湄星路2025弄,121.4019443,31.37840041,1,80,门址,wgs84,
宝山区月城路300弄,121.4291425,31.38042942,1,70,地产小区,wgs84,
浦东新区合庆镇永红村奚家宅,121.6994961,31.23127779,,50,NoClass,wgs84,
黄浦区绍兴路102弄,121.457582,31.21076385,1,80,门址,wgs84,
徐汇区桂林路565号,121.4106373,31.18006763,1,80,门址,wgs84,
浦东新区浦东大道2748弄,121.5580382,31.26149658,,30,道路,wgs84,
浦东新区古桐路54弄,121.608474,31.20552658,1,80,门址,wgs84,
浦东新区宣镇东路788弄,121.6967707,31.02519636,,50,NoClass,wgs84,
闵行区罗阳一村,121.4065682,31.12513989,1,70,地产小区,wgs84,
静安区凤阳路539号,121.4613181,31.23457846,1,80,门址,wgs84,
青浦区赵华路301弄,121.1978165,31.1540516,1,70,地产小区,wgs84,
嘉定区黄家花园路88弄,121.3163238,31.25399848,1,80,门址,wgs84,
浦东新区大团镇金园村金陵,121.7789379,30.99287938,,50,村庄,wgs84,
静安区青云路483弄,121.4653663,31.26468185,,50,NoClass,wgs84,
闵行区银都路466弄,121.4405852,31.10893627,1,80,门址,wgs84,
浦东新区跃进村西石家宅,121.6885928,31.20630186,,50,村庄,wgs84,
黄浦区南昌路24弄,121.4668623,31.22126802,1,80,门址,wgs84,
黄浦区巡道街37弄,121.4930988,31.22237334,,50,NoClass,wgs84,
黄浦区小桃园街50弄,121.4850648,31.22335623,,30,道路,wgs84,
黄浦区淡水路225弄,121.4688238,31.21876314,,50,NoClass,wgs84,
黄浦区广东路138号,121.483619,31.23534634,1,80,门址,wgs84,
浦东新区南园路455弄,121.7422736,31.02746234,,50,NoClass,wgs84,
浦东新区环林东路799弄,121.5280762,31.1454851,1,80,门址,wgs84,
闵行区龙吴路4787弄,121.4626186,31.06612542,,50,工业园区,wgs84,
宝山区革新路35号,121.4475035,31.34008861,1,80,门址,wgs84,
闵行区青年路267弄,121.3481809,31.15449627,1,75,楼号,wgs84,
浦东新区上南路6733弄,121.5586219,31.12114085,1,75,楼号,wgs84,
虹口区巴林路61弄,121.4917053,31.28987943,1,80,门址,wgs84,
浦东新区长清路177弄,121.4856565,31.16789632,,50,NoClass,wgs84,
嘉定区乐秀路315号,121.3100758,31.27206731,1,80,门址,wgs84,
静安区平顺路875弄,121.4493295,31.32046067,1,70,地产小区,wgs84,
闵行区三达支路537弄,121.5141628,31.07496815,1,75,购物,wgs84,
浦东新区上川路361号,121.635137,31.2759904,1,80,门址,wgs84,
浦东新区向东村陆家宅,121.6088224,31.03011607,,50,村庄,wgs84,
松江区荣乐东路1555号,121.2601464,31.01943323,1,80,门址,wgs84,
虹口区华严路138弄,121.4684301,31.30598006,,50,NoClass,wgs84,
黄浦区浙江中路118弄,121.4756289,31.23397337,1,80,门址,wgs84,
闵行区安宁路289弄,121.4120551,31.0158694,,50,NoClass,wgs84,
长宁区安化路529号,121.4145512,31.21749381,1,80,门址,wgs84,
青浦区新凤中路333号,121.223599,31.23278199,1,80,门址,wgs84,
静安区青云路702号,121.4619728,31.26284317,1,80,门址,wgs84,
静安区会文路5号,121.4690125,31.25261896,1,80,门址,wgs84,
静安区柳营路463弄,121.4563089,31.26772597,,30,道路,wgs84,
静安区普善路铁路新村83号,121.4487071,31.25887817,1,75,楼号,wgs84,
浦东新区成山路248弄,121.4946305,31.1711109,1,80,门址,wgs84,
宝山区陈川路555弄,121.3277597,31.48205557,1,80,门址,wgs84,
闵行区航新路408弄,121.3426967,31.17346729,1,80,门址,wgs84,
青浦区华富街130弄,121.2285648,31.24655134,1,80,门址,wgs84,
徐汇区上中西路348号,121.4205409,31.13639725,1,80,门址,wgs84,
闵行区龙茗路1597弄,121.3782783,31.15162919,,50,NoClass,wgs84,
普陀区东新路88弄,121.4221006,31.24539606,1,80,门址,wgs84,
浦东新区青桐路18弄,121.6167214,31.22033576,1,80,门址,wgs84,
杨浦区国定路700弄,121.4994457,31.30876165,1,80,门址,wgs84,
黄浦区瑞金二路456弄,121.4623844,31.20732367,1,75,商务大厦,wgs84,
黄浦区广东路550号,121.4763747,31.23401946,1,80,门址,wgs84,
浦东新区潍坊路149弄,121.5226247,31.2281216,,30,道路,wgs84,
静安区余姚路649弄,121.4315327,31.23637974,,30,道路,wgs84,
嘉定区阿克苏路66弄,121.2686188,31.32983199,1,75,购物,wgs84,
静安区宝昌路200号,121.4722354,31.25815854,1,80,门址,wgs84,
闵行区双柏路1512号,121.4223991,31.08833482,1,80,门址,wgs84,
浦东新区栏杆村潘家宅,121.6660077,31.17467359,,50,村庄,wgs84,
宝山区永清新村,121.4936023,31.39310733,1,70,地产小区,wgs84,
徐汇区桃江路35号,121.4446466,31.21123066,1,80,门址,wgs84,
黄浦区西刘家弄15号,121.4805148,31.23347475,,20,区县,wgs84,
静安区灵石路697号,121.4434367,31.28549222,1,80,门址,wgs84,
闵行区广南路666弄,121.4555532,31.03789231,,50,NoClass,wgs84,
虹口区四川北路1915号,121.4792861,31.26406496,1,80,门址,wgs84,
闵行区灯辉路601弄,121.4183373,31.03345755,1,70,地产小区,wgs84,
静安区平陆路312弄,121.4423646,31.28672136,1,75,购物,wgs84,
嘉定区鹤霞路111弄,121.3123243,31.24818753,1,75,楼号,wgs84,
黄浦区陆家浜路804弄5号,121.4884552,31.21404755,,50,NoClass,wgs84,
杨浦区周家嘴路2399号,121.5164275,31.2732642,1,80,门址,wgs84,
松江区沪亭南路700弄,121.3298127,31.11718727,,50,NoClass,wgs84,
黄浦区长乐路161号,121.4587031,31.22240854,1,80,门址,wgs84,
长宁区延安西路1000号,121.4266123,31.21457252,1,80,门址,wgs84,
嘉定区海川路58弄,121.3435837,31.26770663,1,80,门址,wgs84,
虹口区同心路125弄,121.4734626,31.26899074,1,70,地产小区,wgs84,
浦东新区联勤村冯桥队张家宅,121.5467894,31.16707954,1,70,地产小区,wgs84,
静安区威海路629弄,121.4551125,31.22844063,,50,NoClass,wgs84,
浦东新区红枫路108弄,121.5838131,31.24675198,1,80,门址,wgs84,
宝山区友谊西路101号,121.4226773,31.3840156,1,80,门址,wgs84,
杨浦区开鲁路320弄,121.5314142,31.32691914,1,80,门址,wgs84,
长宁区新泾六村,121.3622425,31.22250473,1,70,地产小区,wgs84,
浦东新区大众村西沟圈,121.6471829,31.23093393,,50,村庄,wgs84,
宝山区水产西路515弄,121.417393,31.36046781,1,75,购物,wgs84,
黄浦区复兴中路239弄,121.4732685,31.21851482,1,70,地产小区,wgs84,
闵行区元江路4600弄,121.3711375,31.04565987,1,80,门址,wgs84,
浦东新区三林路184号,121.491498,31.13882411,1,80,门址,wgs84,
杨浦区佳木斯路21弄,121.5346847,31.29917766,,30,道路,wgs84,
杨浦区黄兴路1061号,121.5193423,31.28350353,1,80,门址,wgs84,
浦东新区浦东大道709号,121.5209907,31.24310026,1,80,门址,wgs84,
闵行区东华美路220弄,121.3280438,31.22339446,1,80,门址,wgs84,
嘉定区古猗园南路355弄,121.3095692,31.29386122,1,70,地产小区,wgs84,
浦东新区北蔡镇御桥村印家队东印家圈,121.5540061,31.16991578,,50,NoClass,wgs84,
黄浦区徽宁路22弄,121.4911868,31.2133211,1,80,门址,wgs84,
黄浦区黄河路289号,121.4645917,31.23925198,1,80,门址,wgs84,
静安区高平路539号,121.4230778,31.28847999,1,80,门址,wgs84,
杨浦区仁德路101弄,121.4835305,31.30638709,1,75,楼号,wgs84,
松江区涞坊路1188弄,121.2929543,31.15017385,1,80,门址,wgs84,
浦东新区航春路169弄,121.6015199,31.08352106,,50,NoClass,wgs84,
闵行区立跃路2795号,121.5107324,31.09313882,1,80,门址,wgs84,
长宁区愚园路1223号,121.4212703,31.2205545,1,80,门址,wgs84,
虹口区汶水东路510弄,121.4746447,31.29124351,,50,NoClass,wgs84,
长宁区万航渡路1278弄,121.4186334,31.22907231,1,75,楼号,wgs84,
虹口区中山北一路1200号,121.4834122,31.29241586,1,80,门址,wgs84,
青浦区华益村,121.2340074,31.25417809,,50,村庄,wgs84,
浦东新区齐河路909弄,121.5123629,31.18559732,1,80,门址,wgs84,
浦东新区金皖路55号工地生活区,121.6098317,31.26143118,,80,门址,wgs84,
浦东新区锦绣路666弄,121.553705,31.2244078,,50,NoClass,wgs84,
浦东新区金杨街道金浜村,121.5574874,31.2590637,,50,村庄,wgs84,
浦东新区秀沿路836弄,121.5675675,31.13595226,1,75,楼号,wgs84,
杨浦区国和路1048号,121.5261038,31.32044745,1,80,门址,wgs84,
闵行区梅富路159号,121.4118392,31.11035009,1,80,门址,wgs84,
浦东新区民建村梅家宅,121.6723998,31.22944686,,50,村庄,wgs84,
浦东新区齐爱路168弄,121.6510547,31.22082526,1,70,生活服务,wgs84,
静安区安远路1号,121.4451968,31.24460789,1,80,门址,wgs84,
浦东新区玉盘北路288弄,121.6681233,31.22772641,,50,NoClass,wgs84,
宝山区嘉罗公路2751号,121.3313532,31.41685083,,30,道路,wgs84,
杨浦区政修路15号,121.5050717,31.29692193,1,80,门址,wgs84,
杨浦区大连西路40弄,121.4926298,31.27863898,1,70,地产小区,wgs84,
普陀区宜川五村,121.4394536,31.26299302,1,70,地产小区,wgs84,
青浦区新府中路1658弄,121.2274748,31.23445643,,30,道路,wgs84,
静安区虬江路1431弄,121.4613859,31.2519976,1,80,门址,wgs84,
闵行区正义村,121.5225316,31.01048494,,50,村庄,wgs84,
浦东新区高东镇踊跃村小宅,121.64744,31.3068427,,50,NoClass,wgs84,
黄浦区静修路66号,121.4830732,31.22186927,1,80,门址,wgs84,
杨浦区控江路888弄,121.5294416,31.28587236,1,80,门址,wgs84,
徐汇区南丹路377弄,121.4240732,31.19393971,1,70,地产小区,wgs84,
静安区芷江中路303号,121.4677971,31.26230996,1,80,门址,wgs84,
黄浦区兴安路163弄,121.4657472,31.22278169,1,80,门址,wgs84,
宝山区罗东路52弄,121.3714268,31.42069126,,50,NoClass,wgs84,
闵行区普杰路69弄,121.4178273,31.11833929,,50,NoClass,wgs84,
宝山区盛桥四村,121.3989367,31.4514187,1,70,地产小区,wgs84,
黄浦区淡水路232号,121.4686402,31.21900948,1,80,门址,wgs84,
静安区乌鲁木齐北路65弄,121.4361745,31.22628954,1,75,宾馆,wgs84,
闵行区华宁路265弄,121.3889512,31.01644167,1,80,门址,wgs84,
虹口区通州路188弄,121.4942983,31.25721524,1,70,地产小区,wgs84,
青浦区尚泰路458弄,121.2330719,31.1840203,,30,道路,wgs84,
杨浦区平凉路2771弄,121.553267,31.28117779,1,70,地产小区,wgs84,
浦东新区小湾村新村宅,121.6859018,31.23537532,1,70,地产小区,wgs84,
徐汇区罗秀路717弄,121.430322,31.13324298,1,75,楼号,wgs84,
黄浦区曹市弄39弄,121.4757457,31.2304584,1,70,地产小区,wgs84,
浦东新区华路村瞿家宅,121.7232725,31.19359113,1,70,地产小区,wgs84,
闵行区都市路1900弄,121.409924,31.05897376,1,80,门址,wgs84,
黄浦区制造局路721弄,121.4456144,31.23606719,1,70,地产小区,wgs84,
浦东新区城南路747弄,121.6884948,31.19047103,1,70,地产小区,wgs84,
徐汇区南丹路128弄,121.4280072,31.19095854,1,70,地产小区,wgs84,
黄浦区汝南街66号,121.4801675,31.20476766,1,80,门址,wgs84,
浦东新区合庆镇跃进村新宅,121.6984804,31.21012205,,50,村庄,wgs84,
嘉定区曹安公路2043号,121.1749285,31.28910306,,30,道路,wgs84,
闵行区虹梅南路3293号,121.4328488,31.08805629,1,80,门址,wgs84,
浦东新区东明路383弄,121.5057048,31.18495815,1,80,门址,wgs84,
黄浦区打浦路398弄,121.4677541,31.1998089,1,70,地产小区,wgs84,
黄浦区永年路92弄,121.4750885,31.21427006,,30,道路,wgs84,
虹口区欧阳路318号,121.4828691,31.27136864,1,80,门址,wgs84,
静安区平顺路980弄,121.4500579,31.31977519,1,80,门址,wgs84,
浦东新区高东镇沙港村西沙港(东),121.61987,31.34065232,,50,村庄,wgs84,
嘉定区金鼎路2288号,121.3601625,31.26079924,1,80,门址,wgs84,
黄浦区桑园街6弄,121.4805148,31.23347475,,20,区县,wgs84,
杨浦区延吉西路81弄,121.5172069,31.28170763,1,80,门址,wgs84,
闵行区莘朱东路264号工地,121.4276214,31.12822652,,30,道路,wgs84,
宝山区西朱新村,121.4869989,31.37767758,,50,NoClass,wgs84,
长宁区中山西路1257号,121.414566,31.19446604,1,80,门址,wgs84,
静安区中山北路703弄,121.4725986,31.28471392,1,70,地产小区,wgs84,
嘉定区铜川路2188弄,121.3733533,31.25681547,1,70,地产小区,wgs84,
静安区南京西路1213弄,121.4489619,31.22867044,1,80,门址,wgs84,
黄浦区静修路146号,121.4817343,31.22130895,1,80,门址,wgs84,
黄浦区四牌楼路121弄,121.4907724,31.22561795,1,75,楼号,wgs84,
嘉定区洪德路168号,121.257712,31.36053906,1,80,门址,wgs84,
普陀区甘泉三村,121.4215507,31.26282442,1,70,地产小区,wgs84,
黄浦区广东路654号,121.4746487,31.23327289,1,80,门址,wgs84,
浦东新区绿林路52弄,121.5434199,31.17552146,1,75,楼号,wgs84,
奉贤区汇中路134弄,121.4895447,30.99012826,,30,道路,wgs84,
浦东新区川周公路2828弄,121.6137324,31.14572572,1,70,医疗,wgs84,
宝山区新二路997弄,121.4714754,31.33252129,1,70,生活服务,wgs84,
浦东新区张杨路1515弄,121.5313489,31.23631619,1,80,门址,wgs84,
松江区沪松公路2517弄,121.2800756,31.116032,1,80,餐饮,wgs84,
徐汇区汇成五村,121.430871,31.14397006,1,70,地产小区,wgs84,
浦东新区高宝路528弄,121.623792,31.29501721,1,70,地产小区,wgs84,
黄浦区江阴路126号,121.4636404,31.23151604,1,80,门址,wgs84,
浦东新区莲中路250弄,121.5535995,31.18360258,1,80,门址,wgs84,
虹口区多伦路163弄,121.4456563,31.26149623,1,70,地产小区,wgs84,
徐汇区日晖二村,121.4615239,31.19644836,,50,NoClass,wgs84,
松江区北厍路33弄,121.1355449,30.94381032,,30,道路,wgs84,
青浦区城中西路448弄,121.0988037,31.14959859,1,70,地产小区,wgs84,
虹口区大连西路615号,121.4768374,31.27667851,1,80,门址,wgs84,
虹口区天通庵路558号,121.4727661,31.26626777,,30,道路,wgs84,
黄浦区鲁班路738弄,121.4737458,31.1960958,,50,NoClass,wgs84,
虹口区天通庵路564号,121.4727661,31.26626777,,30,道路,wgs84,
徐汇区广元西路88号,121.4307926,31.19865978,1,80,门址,wgs84,
浦东新区金桥镇王家桥村新宅,121.6314002,31.24474989,,50,村庄,wgs84,
静安区场中路3123弄,121.426947,31.30568529,1,75,楼号,wgs84,
静安区长乐路650号,121.4495851,31.22073571,1,80,门址,wgs84,
闵行区曹建路230弄,121.4340118,31.09325386,1,70,地产小区,wgs84,
嘉定区大治路315号,121.2977609,31.37935932,1,80,门址,wgs84,
松江区马桥村,121.2711542,30.91204484,,50,村庄,wgs84,
浦东新区南泉路1241弄,121.5194792,31.21448997,1,80,门址,wgs84,
静安区柳营路1079号,121.4446767,31.2624816,1,80,门址,wgs84,
浦东新区惠南镇陆楼村长路,121.7699871,31.07702751,,30,道路,wgs84,
静安区共和新路4685号,121.4436277,31.31877728,1,80,门址,wgs84,
静安区洛川东路352弄,121.4577477,31.27165908,1,70,地产小区,wgs84,
闵行区永德路645号,121.4492259,31.04283815,,30,道路,wgs84,
普陀区志丹路400弄,121.4267885,31.26689926,1,80,门址,wgs84,
黄浦区静修路107号,121.4823259,31.22166894,1,80,门址,wgs84,
浦东新区胜利路836弄,121.6977371,31.24808648,1,80,门址,wgs84,
虹口区昆明路241号,121.5048293,31.25920579,1,80,门址,wgs84,
浦东新区红星村,121.6936771,31.2368021,,50,村庄,wgs84,
宝山区行知路569弄,121.4079287,31.28496986,1,80,门址,wgs84,
虹口区水电路201号,121.4693923,31.27597766,1,80,门址,wgs84,
宝山区抚远路699弄,121.362894,31.40001451,1,70,生活服务,wgs84,
浦东新区庆荣路485弄,121.7206199,31.23975401,1,70,地产小区,wgs84,
浦东新区东靖路51弄,121.568946,31.29394603,1,70,地产小区,wgs84,
黄浦区丽园路879号,121.4711124,31.20876288,1,80,门址,wgs84,
浦东新区城丰路245弄,121.6688598,31.18654835,,30,道路,wgs84,
黄浦区徐家汇路515弄,121.4716889,31.21079396,,50,NoClass,wgs84,
静安区中华新路893号,121.4513521,31.25619413,1,80,门址,wgs84,
黄浦区陕西南路15号,121.4524588,31.2237492,1,80,门址,wgs84,
松江区平原街282号,121.1281078,31.03447814,1,80,门址,wgs84,
浦东新区川沙新镇栏杆村奚家宅,121.6587215,31.17707647,1,70,地产小区,wgs84,
虹口区水电路810弄,121.4721565,31.28710435,,30,道路,wgs84,
嘉定区金沙江路3131号,121.3495654,31.24359297,1,80,门址,wgs84,
浦东新区金沪路1218弄,121.5999097,31.24335468,,50,NoClass,wgs84,
杨浦区政立路509号,121.4988486,31.31029255,1,80,门址,wgs84,
静安区广延路1188弄,121.4507268,31.2932823,1,70,政府机构,wgs84,
浦东新区营房村,121.5617586,31.13836442,,50,村庄,wgs84,
浦东新区上南路4071弄,121.5055482,31.1490479,,30,道路,wgs84,
闵行区七莘路2880号,121.3503671,31.15094636,1,80,门址,wgs84,
浦东新区新陈路428弄,121.5612135,31.18202327,1,80,门址,wgs84,
黄浦区局门后路95弄,121.4761106,31.21041253,,30,道路,wgs84,
松江区文松路555号,121.1499439,31.02745456,1,80,门址,wgs84,
徐汇区零陵路659弄,121.4470776,31.19141338,,30,道路,wgs84,
静安区武定路600弄,121.4447571,31.23500492,1,80,门址,wgs84,
虹口区昆明路155弄,121.5034363,31.25814318,1,70,地产小区,wgs84,
浦东新区川沙新镇杜坊村,121.6921699,31.17410959,,50,村庄,wgs84,
浦东新区黄楼村姚家宅,121.6595783,31.1640706,,50,村庄,wgs84,
静安区三泉路510弄,121.4369623,31.31137401,1,70,地产小区,wgs84,
嘉定区高潮路751弄,121.3236356,31.25101788,,50,NoClass,wgs84,
黄浦区复兴东路959弄,121.489393,31.22414789,,30,道路,wgs84,
黄浦区局门路57号,121.4796002,31.19537347,,30,道路,wgs84,
虹口区东余杭路205号,121.4882221,31.2538017,1,80,门址,wgs84,
普陀区武宁路1068号,121.4052406,31.24782368,1,80,门址,wgs84,
浦东新区中科路2166弄,121.6231353,31.19076492,1,70,地产小区,wgs84,
浦东新区上南路6611弄,121.5490996,31.12152772,1,70,地产小区,wgs84,
浦东新区瑞和路101弄,121.5822058,31.08901193,1,70,地产小区,wgs84,
虹口区横浜路37号,121.474244,31.26578014,,30,道路,wgs84,
浦东新区永丰村大徐家宅,121.6921749,31.25729526,,50,村庄,wgs84,
浦东新区永业路188弄,121.6108535,31.26893212,1,75,楼号,wgs84,
黄浦区学西街13号,121.4826953,31.21968742,1,80,门址,wgs84,
黄浦区文庙路45号,121.4858068,31.22109764,1,80,门址,wgs84,
闵行区吴北路10号,121.3337715,31.22298368,,30,道路,wgs84,
普陀区西谈家渡路17弄,121.416738,31.23674159,1,70,地产小区,wgs84,
杨浦区国定东路239号,121.5159376,31.30106837,1,80,门址,wgs84,
虹口区海伦西路101号,121.4790422,31.26120475,1,80,门址,wgs84,
松江区申港二支路41号,121.3483904,31.07391739,,30,道路,wgs84,
杨浦区松花江路36号,121.5401965,31.29937986,1,80,门址,wgs84,
闵行区北江燕路68弄,121.4985985,31.0849221,1,80,门址,wgs84,
杨浦区周家嘴路4440号,121.549574,31.28761362,1,80,门址,wgs84,
静安区武宁南路438弄,121.4276525,31.2342746,,50,NoClass,wgs84,
嘉定区胜辛南路1号,121.2672113,31.2962822,1,80,门址,wgs84,
闵行区三新街51号,121.4382576,31.05613399,1,80,门址,wgs84,
静安区老沪太路225弄,121.4397704,31.27133393,,30,道路,wgs84,
黄浦区延安东路385号,121.4760438,31.23144451,1,80,门址,wgs84,
浦东新区御青路976号,121.5690898,31.15353642,1,80,门址,wgs84,
黄浦区打浦路339弄,121.4675172,31.20128857,1,80,门址,wgs84,
闵行区滨浦新苑三村,121.4985464,31.07022133,1,70,地产小区,wgs84,
浦东新区川沙新镇界龙村戴家宅,121.6875029,31.11104366,,50,村庄,wgs84,
静安区余姚路402弄,121.431585,31.23655685,1,80,门址,wgs84,
静安区临汾路380弄,121.4575396,31.31391951,1,70,地产小区,wgs84,
杨浦区隆昌路661弄,121.5359921,31.28072978,,50,NoClass,wgs84,
宝山区友谊路1568弄,121.4733218,31.40489591,,30,道路,wgs84,
杨浦区安图路76号,121.5371869,31.29383842,1,80,门址,wgs84,
嘉定区德华路79弄,121.3126977,31.29813369,1,80,门址,wgs84,
杨浦区国顺东路410号,121.5245947,31.29896796,1,80,门址,wgs84,
松江区沪松路2511弄,121.2415182,31.02826426,,30,道路,wgs84,
静安区余姚路417号,121.4314016,31.23615446,1,80,门址,wgs84,
虹口区霍山路69号,121.5056552,31.25531906,1,80,门址,wgs84,
浦东新区永利村冯家宅,121.6912908,31.26599784,,50,村庄,wgs84,
嘉定区李园二村,121.2472546,31.39350369,1,70,地产小区,wgs84,
黄浦区兴安路165号,121.4658039,31.22272097,1,80,门址,wgs84,
浦东新区营房村高路二宅,121.8219533,30.98609455,,50,村庄,wgs84,
浦东新区祝桥镇祝桥村一灶,121.753967,31.12009266,,30,道路,wgs84,
虹口区旅顺路71弄,121.4912279,31.2504718,1,80,门址,wgs84,
松江区南姚路68弄,121.3067346,31.02065915,,30,道路,wgs84,
浦东新区丰乐村,121.6824526,31.07541067,,50,村庄,wgs84,
闵行区杜行南街,121.4934219,31.05472908,,30,道路,wgs84,
静安区南山路26弄,121.4613708,31.25957123,1,70,地产小区,wgs84,
虹口区场中路888号,121.4604743,31.30785751,1,80,门址,wgs84,
浦东新区邓一村邬家宅,121.745431,31.13888002,,50,村庄,wgs84,
宝山区亭前街27弄,121.3368916,31.4143064,,30,道路,wgs84,
浦东新区环庆南路336弄,121.7237216,31.22879061,1,70,教育,wgs84,
杨浦区黄兴路1888号,121.5150324,31.29501261,1,80,门址,wgs84,
黄浦区宁波路626号,121.4712438,31.23851811,1,80,门址,wgs84,
宝山区淞滨路122弄,121.4896379,31.37431331,,30,道路,wgs84,
长宁区仙霞西路630弄,121.3563926,31.2110814,1,75,楼号,wgs84,
长宁区愚园路1407弄,121.4179765,31.22054319,1,80,门址,wgs84,
嘉定区中大街20号,121.2119316,31.43145268,1,80,门址,wgs84,
宝山区月罗路300弄,121.4067223,31.41975756,1,70,地产小区,wgs84,
青浦区庆华四村,121.1118607,31.15561553,1,70,地产小区,wgs84,
黄浦区西仓桥街98号,121.4856009,31.22231268,1,80,门址,wgs84,
静安区康定路988号,121.4333926,31.23300302,1,80,门址,wgs84,
长宁区新华路569弄,121.4171408,31.20548688,1,80,门址,wgs84,
宝山区长江西路1371号,121.4498216,31.33901998,1,80,门址,wgs84,
黄浦区徽宁路513号,121.4835225,31.21134258,1,80,门址,wgs84,
浦东新区瑞阳路693弄,121.5869688,31.09083914,1,75,楼号,wgs84,
杨浦区许昌路227弄,121.5210552,31.25653865,1,70,休闲娱乐,wgs84,
长宁区定西路720弄,121.4203772,31.20959366,1,70,教育,wgs84,
嘉定区春归路688号,121.22922,31.28890243,1,80,门址,wgs84,
虹口区横浜路178弄,121.473778,31.26587642,1,75,楼号,wgs84,
黄浦区天津路524号,121.4721828,31.23801286,1,80,门址,wgs84,
虹口区凉城路1319弄,121.4666131,31.29675236,,30,道路,wgs84,
浦东新区浦三路288弄,121.5093446,31.19582045,1,75,楼号,wgs84,
宝山区通南路91号,121.4713346,31.33996491,1,80,门址,wgs84,
浦东新区中山路56弄,121.7488367,31.04693286,,30,道路,wgs84,
徐汇区乌鲁木齐中路178号,121.4409586,31.21526381,1,80,门址,wgs84,
虹口区同心路977号,121.4651214,31.27555495,1,80,门址,wgs84,
徐汇区襄阳南路267号,121.4532233,31.21231346,1,80,门址,wgs84,
杨浦区杭州路566号,121.5373551,31.26565239,1,80,门址,wgs84,
徐汇区中山南二路2031号,121.4370735,31.17990965,1,80,门址,wgs84,
浦东新区方竹路333弄,121.9048688,30.8962548,1,70,地产小区,wgs84,
浦东新区虹三村龚家宅,121.6688639,31.25572113,,50,村庄,wgs84,
静安区康定路758弄,121.4379493,31.23385993,1,80,门址,wgs84,
浦东新区长桥村,121.731186,31.14952261,,50,村庄,wgs84,
长宁区虹梅路3896弄,121.379068,31.19517412,,30,道路,wgs84,
浦东新区张江路775弄,121.6143752,31.20503547,1,80,门址,wgs84,
黄浦区金陵东路115号,121.4852891,31.23295442,1,80,门址,wgs84,
静安区胶州路433号,121.4371537,31.23309992,1,80,门址,wgs84,
徐汇区漕东三路25弄,121.4332481,31.17289005,,30,道路,wgs84,
徐汇区龙南三村,121.4516857,31.15810354,1,70,地产小区,wgs84,
杨浦区邯郸路220号,121.5000591,31.29894589,1,80,门址,wgs84,
静安区晋元路228弄,121.4636893,31.24588649,,50,NoClass,wgs84,
静安区临汾路850弄,121.4459529,31.31303108,1,80,门址,wgs84,
杨浦区本溪路139号,121.5140004,31.27889201,1,80,门址,wgs84,
浦东新区清溪路430号,121.5664663,31.34283161,1,80,门址,wgs84,
浦东新区虹四村吴张家宅,121.6476081,31.2428938,,50,村庄,wgs84,
静安区阳城路283弄,121.4208793,31.28581877,1,75,楼号,wgs84,
宝山区菊太路1609弄,121.3445707,31.3475659,1,80,门址,wgs84,
长宁区愚园路1223弄,121.4244826,31.22061633,,30,道路,wgs84,
黄浦区普育东路200弄,121.491265,31.20999401,1,80,门址,wgs84,
黄浦区蓬莱路336号,121.4843815,31.21888442,1,80,门址,wgs84,
宝山区美平路428弄,121.3418386,31.39173871,,50,NoClass,wgs84,
浦东新区季景北路286弄,121.5786222,31.34466224,1,80,门址,wgs84,
浦东新区莲园路518弄,121.5542934,31.18783685,1,70,地产小区,wgs84,
浦东新区施湾三路1056弄,121.7462214,31.14684423,,30,道路,wgs84,
浦东新区城南村北沈家宅,121.6902581,31.02001776,,50,村庄,wgs84,
宝山区联谊路619弄,121.4260626,31.34724858,,30,道路,wgs84,
浦东新区新华村强顾家宅,121.6563928,31.26714022,,50,村庄,wgs84,
嘉定区百安公路2999弄,121.1693912,31.35507415,1,70,地产小区,wgs84,
静安区万航渡路249弄,121.4353577,31.22730028,1,80,门址,wgs84,
浦东新区城南路303弄,121.6953409,31.1935342,,30,道路,wgs84,
宝山区宝山一村,121.4987705,31.39787101,1,70,地产小区,wgs84,
宝山区淞南新村,121.4782701,31.34693792,1,70,地产小区,wgs84,
杨浦区延吉西路80弄,121.5180409,31.28281715,1,80,门址,wgs84,
杨浦区国帆路99弄,121.5087484,31.34251726,,30,道路,wgs84,
黄浦区方斜支路7号,121.4816069,31.21874818,1,80,门址,wgs84,
嘉定区靖远路1200号,121.3226939,31.25678841,1,80,门址,wgs84,
黄浦区曹家弄4号,121.4805148,31.23347475,,20,区县,wgs84,
松江区梅园路60弄,121.2317732,31.0009611,,30,道路,wgs84,
宝山区湄浦路218弄,121.4588579,31.40782246,,50,NoClass,wgs84,
长宁区长宁支路237弄,121.420207,31.22790685,1,80,门址,wgs84,
宝山区月罗路120号,121.3670445,31.4195172,,30,道路,wgs84,
浦东新区林展路411弄,121.504694,31.12458977,1,80,门址,wgs84,
嘉定区曹安公路1717号,121.3601752,31.25489682,1,80,门址,wgs84,
闵行区光中路696号,121.3775224,31.07339553,1,80,门址,wgs84,
浦东新区三林镇临江村益民队小金家宅,121.477402,31.12617074,,50,村庄,wgs84,
虹口区舟山路559号,121.4978843,31.26209204,1,80,门址,wgs84,
浦东新区永利村龚家宅,121.6912908,31.26599784,,50,村庄,wgs84,
虹口区水电路1321弄,121.4735077,31.29872617,1,80,门址,wgs84,
松江区东勤村,121.3385962,30.96548227,,50,村庄,wgs84,
黄浦区淮海中路593弄,121.4631777,31.22223608,,50,NoClass,wgs84,
浦东新区高青路2878弄,121.524732,31.16296013,1,80,门址,wgs84,
浦东新区水华路1000号工地生活区,121.8842255,30.89660463,1,70,地产小区,wgs84,
闵行区老沪闵路1295弄,121.434008,31.121734,1,70,地产小区,wgs84,
普陀区真如西村,121.3945918,31.24832983,1,70,地产小区,wgs84,
浦东新区曹路镇永和村陆万村,121.69228,31.26561231,,50,村庄,wgs84,
普陀区真南路822弄521支弄,121.3797196,31.28194865,1,70,地产小区,wgs84,
松江区易富路100弄,121.3256194,31.11916441,1,70,地产小区,wgs84,
长宁区武夷路447号,121.4162692,31.21478148,1,80,门址,wgs84,
静安区塘沽路835号,121.475125,31.24803345,1,80,门址,wgs84,
浦东新区栖山路465弄,121.5466324,31.24970117,1,70,生活服务,wgs84,
浦东新区浦东南路2169号,121.5122999,31.20934124,1,80,门址,wgs84,
黄浦区淮海中路496号,121.4650594,31.22329965,1,80,门址,wgs84,
虹口区曲阳路779号,121.4858705,31.29071269,1,80,门址,wgs84,
黄浦区青岛路85号,121.4631834,31.2389983,1,80,门址,wgs84,
黄浦区西藏南路750号,121.4798425,31.21741465,1,80,门址,wgs84,
黄浦区中山南路36号,121.4952392,31.22600177,1,80,门址,wgs84,
闵行区闵驰一路299弄,121.5366716,31.04164858,,50,NoClass,wgs84,
长宁区定西路1018号,121.4190182,31.21319681,1,80,门址,wgs84,
黄浦区建国东路45号,121.4756769,31.21545915,1,80,门址,wgs84,
浦东新区高科西路3000弄,121.5575715,31.19163118,1,80,门址,wgs84,
宝山区顾北路465号,121.3877369,31.35414608,1,80,门址,wgs84,
浦东新区巨野路22号,121.5383238,31.24656743,1,80,门址,wgs84,
静安区武定西路1192弄,121.4305677,31.22830207,1,70,地产小区,wgs84,
黄浦区西藏南路1379号,121.4836664,31.20758298,1,80,门址,wgs84,
松江区滨悦路76号,121.2235835,31.03321959,,20,区县,wgs84,
宝山区镇泰路211弄,121.4393101,31.3835026,1,80,门址,wgs84,
宝山区环镇北路699弄,121.3966892,31.31068504,1,80,门址,wgs84,
松江区明华路1077弄,121.3356274,31.07568418,1,70,地产小区,wgs84,
闵行区爱国村,121.444126,31.08481915,,50,村庄,wgs84,
浦东新区劳动村郑家宅,121.6280449,31.17219751,,50,NoClass,wgs84,
浦东新区东海村胡家宅,121.6671755,31.30281194,,50,村庄,wgs84,
普陀区管弄路226弄,121.4214245,31.2587755,1,70,地产小区,wgs84,
浦东新区金高路2216弄,121.6022378,31.26361448,1,75,购物,wgs84,
闵行区罗阳三村,121.4032919,31.12495746,1,70,地产小区,wgs84,
宝山区长江西路581弄,121.467655,31.3471991,,50,NoClass,wgs84,
宝山区绥化路50弄,121.4314839,31.40790577,1,80,门址,wgs84,
浦东新区成山路143号,121.486963,31.17317642,1,80,门址,wgs84,
宝山区江杨南路1558弄,121.4600095,31.33693317,,50,NoClass,wgs84,
青浦区新府中路1331弄,121.2259571,31.22716295,1,80,门址,wgs84,
徐汇区肇嘉浜路665号,121.4484717,31.20203124,1,80,门址,wgs84,
宝山区淞南十村,121.4703308,31.3333432,,50,NoClass,wgs84,
普陀区曹杨八村,121.4003581,31.2488469,1,70,地产小区,wgs84,
杨浦区眉州路300号,121.5312842,31.26316879,1,80,门址,wgs84,
杨浦区本溪路149弄,121.5119009,31.2781439,1,80,门址,wgs84,
普陀区桃浦路743弄,121.3835347,31.26143242,1,80,门址,wgs84,
青浦区曹泾村,121.139857,31.20484291,,50,村庄,wgs84,
浦东新区新元南路172号工地生活区,121.8169185,30.86194721,1,80,门址,wgs84,
宝山区潘泾路5772弄,121.4016928,31.35294097,,30,道路,wgs84,
徐汇区零陵路791弄,121.4347271,31.18651595,1,70,地产小区,wgs84,
黄浦区顺昌路511号,121.4749947,31.21477752,1,80,门址,wgs84,
嘉定区建华路60号,121.3447968,31.27212363,1,80,门址,wgs84,
黄浦区西姚家弄55号,121.4914937,31.22453423,1,80,门址,wgs84,
松江区联梅路528弄,121.2730931,30.99539149,,30,道路,wgs84,
浦东新区临江村周南队周家宅,121.4676896,31.12004563,,50,村庄,wgs84,
杨浦区吉浦路375弄,121.4860703,31.30865367,1,75,楼号,wgs84,
浦东新区北艾路73弄,121.5390081,31.18837488,,50,NoClass,wgs84,
黄浦区瑞金南路185弄,121.4644107,31.20203028,1,80,门址,wgs84,
静安区景凤路301弄,121.4573484,31.32186687,1,75,楼号,wgs84,
普陀区洛川路10弄,121.4407405,31.26512689,1,70,地产小区,wgs84,
浦东新区航鹤路1000弄,121.6121391,31.03304352,,30,道路,wgs84,
静安区汾西路711弄,121.4482115,31.31480505,1,70,地产小区,wgs84,
静安区大统路1138号,121.4545835,31.26015538,1,80,门址,wgs84,
黄浦区平望街48号,121.4744741,31.23416699,1,80,门址,wgs84,
浦东新区紫叶路65弄,121.5467163,31.18611557,1,80,门址,wgs84,
浦东新区浦东大道2333号,121.5500793,31.25658162,1,80,门址,wgs84,
浦东新区康沈公路1300弄,121.5678954,31.1398488,,30,道路,wgs84,
杨浦区政本路119号,121.5109792,31.29329858,1,80,门址,wgs84,
浦东新区天花庵村芦家队芦家油车,121.5223004,31.12628232,,50,村庄,wgs84,
徐汇区沪闵路9669弄,121.4306321,31.16951249,1,80,门址,wgs84,
浦东新区北蔡村周家宅,121.551958,31.18473978,,50,村庄,wgs84,
浦东新区凌路村,121.7734202,31.0983183,,30,道路,wgs84,
浦东新区东风村丁家宅,121.6948917,31.22831304,,50,村庄,wgs84,
杨浦区河间路1417号,121.5465104,31.27960224,1,80,门址,wgs84,
闵行区朱家泾村,121.2797469,31.21968375,,50,村庄,wgs84,
虹口区惠民路220弄,121.5092366,31.25621556,1,70,地产小区,wgs84,
虹口区梧州路35号,121.4890094,31.25348963,1,80,门址,wgs84,
闵行区中春路4915弄,121.3639936,31.10196294,1,80,门址,wgs84,
静安区秣陵路83号,121.4534507,31.24986294,1,80,门址,wgs84,
徐汇区五原路175弄,121.4403092,31.21404121,1,80,门址,wgs84,
浦东新区南码头路56号,121.5019799,31.20246912,1,80,门址,wgs84,
浦东新区康梧路189号工地生活区,121.5464687,31.13815576,,80,门址,wgs84,
宝山区罗南二村,121.3607331,31.38827174,1,70,地产小区,wgs84,
宝山区集贤路500弄,121.3442553,31.42318044,1,80,门址,wgs84,
松江区场西路155弄,121.3384694,31.09428296,,50,村庄,wgs84,
长宁区北渔路115弄,121.3674358,31.21611826,1,80,门址,wgs84,
杨浦区市光二村,121.5372596,31.31800158,1,70,地产小区,wgs84,
黄浦区蓬莱路257号,121.4854131,31.21962787,1,80,门址,wgs84,
浦东新区合庆镇朝阳村中心村,121.7289199,31.25130354,,50,村庄,wgs84,
静安区闻喜路555弄,121.4532563,31.31003196,1,80,门址,wgs84,
虹口区四平路372号,121.4870121,31.26775683,,30,道路,wgs84,
虹口区四川北路1666号,121.4786359,31.25947829,1,80,门址,wgs84,
虹口区物华路138号,121.4899443,31.26261087,1,80,门址,wgs84,
宝山区宝杨路3288弄,121.5001051,31.40540961,,50,NoClass,wgs84,
闵行区虹梅南路3678号,121.4357741,31.08323558,1,80,门址,wgs84,
黄浦区大林路338号,121.4793549,31.21425797,1,80,门址,wgs84,
黄浦区徐家汇路258号,121.4691163,31.21068312,,30,道路,wgs84,
宝山区呼兰路551弄,121.4453208,31.34619854,,30,道路,wgs84,
浦东新区唐镇新虹村瞿家宅,121.644264,31.24488544,,50,村庄,wgs84,
黄浦区南京东路138号,121.4826709,31.24057021,1,80,门址,wgs84,
虹口区曲阳路500号,121.486444,31.27925736,1,80,门址,wgs84,
虹口区岳州路423弄,121.4985502,31.26403586,1,70,地产小区,wgs84,
宝山区泗东路37号,121.4794614,31.37023342,1,80,门址,wgs84,
徐汇区延庆路112号,121.4461376,31.2169708,1,80,门址,wgs84,
松江区车亭公路1098号,121.314281,30.95797426,1,80,门址,wgs84,
浦东新区光明路222弄,121.6122019,31.33491726,1,75,楼号,wgs84,
徐汇区龙华西路40号,121.4482147,31.1734812,1,80,门址,wgs84,
闵行区益文路101弄,121.4066117,31.13078381,1,70,地产小区,wgs84,
徐汇区广元西路315号,121.4275732,31.19689603,1,80,门址,wgs84,
普陀区江宁路1078号,121.4400108,31.24439036,1,80,门址,wgs84,
闵行区浦涛路751弄,121.5285976,31.0484474,1,70,休闲娱乐,wgs84,
静安区彭浦新村419号,121.4508909,31.31108325,1,75,楼号,wgs84,
宝山区友谊路1500弄,121.4542749,31.39554112,1,80,门址,wgs84,
浦东新区浦东大道1585弄,121.5364961,31.24668833,1,80,门址,wgs84,
徐汇区桂林西街15弄,121.4113262,31.15748852,1,80,门址,wgs84,
静安区共和新路452号,121.4581707,31.25320257,1,80,门址,wgs84,
黄浦区茂名南路54号,121.4556344,31.22336522,1,80,门址,wgs84,
浦东新区晨晖路377弄,121.6061604,31.20922284,1,80,门址,wgs84,
黄浦区大吉路36号,121.4820408,31.21702484,1,80,门址,wgs84,
浦东新区航头镇果园村倪桥,121.5990155,31.02689263,,50,村庄,wgs84,
松江区中星路503弄,121.2235835,31.03321959,,20,区县,wgs84,
闵行区浦锦路2161弄,121.4879692,31.09647237,,30,道路,wgs84,
黄浦区牛庄路775号,121.4709278,31.23890674,1,80,门址,wgs84,
黄浦区浙江中路413号,121.4731924,31.23822546,1,80,门址,wgs84,
徐汇区田林十四村,121.4194297,31.17644176,1,70,地产小区,wgs84,
嘉定区老宅村,121.221039,31.28908026,,50,村庄,wgs84,
静安区灵石路1197号,121.4219604,31.27454099,1,80,门址,wgs84,
浦东新区许冯村,121.5772372,31.03412861,,50,村庄,wgs84,
浦东新区千汇路581弄,121.7610617,31.1158132,,50,NoClass,wgs84,
杨浦区宁武路238弄,121.5407238,31.27031009,1,80,门址,wgs84,
松江区久富路651号,121.3032259,31.12282936,1,80,门址,wgs84,
静安区宝通路28号,121.4748263,31.25578002,1,80,门址,wgs84,
黄浦区西仓桥街88号,121.4857182,31.22234398,1,80,门址,wgs84,
徐汇区华泾路599弄,121.4476298,31.12114051,1,70,地产小区,wgs84,
虹口区黄渡路99号,121.4771506,31.26978156,1,80,门址,wgs84,
浦东新区拱极路4100弄,121.7565333,31.05587138,,30,道路,wgs84,
杨浦区双阳路507号,121.5264593,31.28547222,1,80,门址,wgs84,
浦东新区拱鸣路60弄,121.7404284,31.06221286,1,70,地产小区,wgs84,
闵行区中华美路5弄,121.3773688,31.11510315,,20,区县,wgs84,
静安区俞泾港路99弄,121.4586232,31.26714896,1,75,楼号,wgs84,
浦东新区曹路镇东海村张家宅,121.6671755,31.30281194,,50,村庄,wgs84,
嘉定区陈翔路388号,121.3356861,31.31930264,1,80,门址,wgs84,
浦东新区浦东南路2192弄,121.5093325,31.20952017,,50,NoClass,wgs84,
宝山区沈杨村,121.3679509,31.33256358,,50,村庄,wgs84,
黄浦区延安中路527号,121.45592,31.22550691,1,80,门址,wgs84,
杨浦区眉州路530弄,121.5291213,31.26585148,,50,NoClass,wgs84,
黄浦区宁波路620弄,121.4710488,31.23878314,1,70,地产小区,wgs84,
浦东新区浦东大道2516号,121.5544499,31.25956579,1,80,门址,wgs84,
黄浦区静修路35弄,121.4836109,31.22228135,1,80,门址,wgs84,
浦东新区铃兰路508弄,121.9151484,30.92095037,1,70,地产小区,wgs84,
杨浦区逸仙路791号,121.4818838,31.30473788,1,80,门址,wgs84,
松江区泽悦路212弄,121.2437694,31.10380075,1,80,门址,wgs84,
浦东新区金穗路778号生活区,121.6298991,31.27996915,1,80,门址,wgs84,
虹口区黄渡路103弄,121.4771191,31.26896339,,30,道路,wgs84,
松江区新松江路1095号,121.2110637,31.04059629,1,80,门址,wgs84,
闵行区双柏路1328号,121.4276296,31.08973952,1,80,门址,wgs84,
黄浦区淮海中路637弄,121.4651119,31.22316569,,30,道路,wgs84,
浦东新区勤星村,121.7559537,31.09753438,,50,村庄,wgs84,
杨浦区凤城六村,121.5127694,31.28592116,1,70,地产小区,wgs84,
浦东新区芙蓉路42弄,121.664028,31.1667884,1,80,门址,wgs84,
黄浦区梦花街127号,121.4828954,31.22072359,1,80,门址,wgs84,
松江区滨湖路585弄,121.2018457,31.04307273,,50,NoClass,wgs84,
杨浦区淞沪路8号,121.5110122,31.30347835,1,80,门址,wgs84,
松江区影维路258弄,121.3118779,31.01641135,1,80,餐饮,wgs84,
宝山区花园宅路52弄,121.420736,31.33049296,1,80,门址,wgs84,
浦东新区长清路75弄,121.4842526,31.17461084,1,80,门址,wgs84,
徐汇区柿子湾路20号,121.4226816,31.18985422,1,80,门址,wgs84,
浦东新区龙桥村伏龙桥,121.6571291,31.00678386,,50,村庄,wgs84,
普陀区安远路662弄,121.4304733,31.23760385,,50,NoClass,wgs84,
虹口区同心路133弄,121.4731916,31.27028475,1,80,门址,wgs84,
静安区共和新路2205弄,121.4494091,31.27921875,1,70,地产小区,wgs84,
徐汇区桂平路123弄,121.4061404,31.15329793,1,80,门址,wgs84,
闵行区紫龙路200弄,121.4631246,31.03557507,,30,道路,wgs84,
浦东新区张江镇环东中心村桥弄金家宅,121.5825537,31.12728262,,30,道路,wgs84,
黄浦区山东中路300号,121.4799892,31.23799631,1,80,门址,wgs84,
浦东新区鹤韵路549弄,121.5929475,31.07717049,1,80,门址,wgs84,
黄浦区成都南路87号,121.4632242,31.22367037,1,80,门址,wgs84,
静安区沪太路655弄,121.4594167,31.25681589,1,70,地产小区,wgs84,
徐汇区云锦路50弄,121.4513775,31.17559262,1,80,门址,wgs84,
闵行区三新街81号,121.4387135,31.05650696,,30,道路,wgs84,
杨浦区长阳路900号,121.5170007,31.26538029,1,80,门址,wgs84,
宝山区金勺路320号,121.3523344,31.45541626,,30,道路,wgs84,
宝山区湄浦村,121.4213051,31.3896015,,50,村庄,wgs84,
虹口区大连西路11号,121.4954131,31.27770322,1,80,门址,wgs84,
嘉定区南苑五村,121.2464595,31.37097112,1,70,地产小区,wgs84,
普陀区宜川二村,121.4329422,31.26237436,1,70,地产小区,wgs84,
闵行区珠城路118弄,121.3833531,31.10554757,1,75,购物,wgs84,
静安区昌化路435弄,121.4659532,31.26528272,1,70,地产小区,wgs84,
虹口区乍浦路356号,121.4823954,31.25241793,1,80,门址,wgs84,
长宁区安化路470弄,121.416231,31.21713534,1,80,门址,wgs84,
静安区成都北路337号,121.4620986,31.23173381,1,80,门址,wgs84,
虹口区溧阳路1155弄,121.5180515,31.23214073,,50,NoClass,wgs84,
宝山区石太路2579号,121.3463045,31.43481695,1,80,门址,wgs84,
黄浦区保屯路129弄,121.4859595,31.20787747,1,80,门址,wgs84,
黄浦区斜土东路265弄,121.4836445,31.20983229,,30,道路,wgs84,
浦东新区韵涛路36弄,121.5988714,31.10776924,,30,道路,wgs84,
徐汇区汇成四村,121.4320069,31.14483518,1,70,地产小区,wgs84,
长宁区安化路335号,121.4185123,31.21655469,1,80,门址,wgs84,
浦东新区下南路115弄,121.5395044,31.16833815,1,80,门址,wgs84,
浦东新区中界村黄家队黄家宅,121.7252324,31.25711273,,50,村庄,wgs84,
浦东新区民区路260弄,121.6508248,31.27633446,,50,NoClass,wgs84,
黄浦区老道前街28号,121.482711,31.22003206,1,80,门址,wgs84,
杨浦区国定路580弄,121.5022036,31.30813598,1,70,地产小区,wgs84,
闵行区龙吴路4377号,121.455233,31.08453114,1,80,门址,wgs84,
松江区陶泾村,121.1810241,31.11942867,,50,村庄,wgs84,
杨浦区河间路555弄,121.5353476,31.27073817,1,80,门址,wgs84,
杨浦区四平路980弄,121.4983306,31.27744338,1,75,楼号,wgs84,
浦东新区民唐路秦家港路交界口工地生活区,121.6867105,31.27198046,,50,村庄,wgs84,
长宁区天山西路267弄,121.367245,31.21798026,1,80,门址,wgs84,
松江区沪亭南路284弄,121.3259927,31.12543553,,50,NoClass,wgs84,
浦东新区庆滨路155弄,121.7191705,31.23326393,1,70,政府机构,wgs84,
宝山区抚远路283弄,121.3560449,31.4146306,,30,道路,wgs84,
长宁区西陶浜路28弄,121.3600696,31.22442107,1,70,地产小区,wgs84,
长宁区安化路271号,121.4214178,31.21661053,1,80,门址,wgs84,
闵行区汇延路199弄,121.5120837,31.02662464,1,70,地产小区,wgs84,
虹口区天宝西路180弄,121.4907453,31.27612831,1,75,楼号,wgs84,
浦东新区药师村,121.6775848,31.205192,,50,村庄,wgs84,
浦东新区红星村姚家宅,121.6936771,31.2368021,,50,村庄,wgs84,
浦东新区张杨路1811弄,121.5442244,31.24027147,1,75,楼号,wgs84,
宝山区鹤岗路31号,121.4879045,31.36322779,1,80,门址,wgs84,
浦东新区拱北路399弄,121.7669779,31.05745193,,50,NoClass,wgs84,
普陀区绥德路603号,121.3662184,31.26792299,1,80,门址,wgs84,
徐汇区大木桥路327号,121.4578317,31.19876707,1,80,门址,wgs84,
黄浦区平望街29号,121.4745955,31.23380915,1,80,门址,wgs84,
浦东新区南码头路451弄,121.505546,31.19720266,1,80,门址,wgs84,
虹口区奎照路411弄,121.473437,31.30184447,1,80,门址,wgs84,
黄浦区河南南路1号,121.4826561,31.23255588,1,80,门址,wgs84,
浦东新区钱堂村三多宅,121.603931,31.1597245,,50,村庄,wgs84,
虹口区衡水路367号,121.4772191,31.25397181,1,80,门址,wgs84,
宝山区共富路518弄,121.4193269,31.34995482,,50,NoClass,wgs84,
闵行区澄江路505号,121.4527272,31.08540909,1,80,门址,wgs84,
浦东新区高行村高家宅,121.6015381,31.29946892,,50,村庄,wgs84,
徐汇区龙南四村,121.4472245,31.15908537,1,75,购物,wgs84,
静安区延平路81号,121.4371023,31.22976061,1,80,门址,wgs84,
浦东新区三林村镇前队洪家新宅,121.4936047,31.13594715,,50,村庄,wgs84,
闵行区虹梅南路1776弄,121.4248848,31.11254712,1,70,地产小区,wgs84,
闵行区虹梅南路1781弄,121.4400124,31.07066011,,30,道路,wgs84,
浦东新区凌兆路428弄,121.4945461,31.14493178,,50,NoClass,wgs84,
虹口区嘉兴路335号,121.4870676,31.25848233,1,80,门址,wgs84,
长宁区延安西路1264弄,121.4221361,31.21174866,1,70,地产小区,wgs84,
浦东新区高科西路2907弄,121.5537188,31.19162194,1,75,购物,wgs84,
静安区阳曲路555弄,121.4548118,31.31729138,1,80,门址,wgs84,
闵行区金都路766号,121.4330406,31.0950786,1,80,门址,wgs84,
闵行区东新街,121.3664298,31.03112297,,30,道路,wgs84,
黄浦区淡水路205弄,121.4687054,31.21869239,,30,道路,wgs84,
松江区影城路47号,121.3059497,31.01504175,1,80,门址,wgs84,
黄浦区香山路22号,121.4618084,31.2178416,1,80,门址,wgs84,
普陀区府村路400号,121.4097863,31.26146399,1,80,门址,wgs84,
宝山区石太路2888号,121.3452931,31.43392855,1,80,门址,wgs84,
宝山区庆安路77号,121.4228526,31.41373856,1,80,门址,wgs84,
杨浦区佳木斯路124号,121.5346847,31.29917766,,30,道路,wgs84,
浦东新区周桥村陆家宅,121.5817282,31.30086434,,50,NoClass,wgs84,
黄浦区西藏南路518号,121.4784374,31.22028281,1,80,门址,wgs84,
闵行区爱博七村,121.300272,31.22411752,1,70,地产小区,wgs84,
浦东新区和平村龚家宅,121.7252996,31.20190935,,50,村庄,wgs84,
黄浦区山西南路310号,121.47703,31.24093317,1,80,门址,wgs84,
黄浦区西仓桥街93号,121.485638,31.22267861,1,80,门址,wgs84,
虹口区汶水东路298弄,121.472918,31.29149193,,30,道路,wgs84,
长宁区法华镇路588弄,121.4213212,31.20644327,,30,道路,wgs84,
青浦区前云路,121.2643708,31.14928856,,30,道路,wgs84,
嘉定区亚钢路最西侧工地,121.2822403,31.32070369,,30,道路,wgs84,
黄浦区成都南路160号,121.4631044,31.22292996,1,80,门址,wgs84,
徐汇区大木桥路485弄,121.4586733,31.19712375,,50,NoClass,wgs84,
虹口区东宝兴路743号,121.4709362,31.26443784,1,80,门址,wgs84,
普陀区叶家宅路100号,121.4265253,31.23943283,1,80,门址,wgs84,
宝山区春雷路331号,121.4291636,31.40973863,,30,道路,wgs84,
松江区鼓浪路57号,121.2789543,31.1185859,1,80,门址,wgs84,
虹口区祥德路26弄,121.4613708,31.25957123,1,70,地产小区,wgs84,
静安区宝昌路753号,121.4663025,31.26576116,1,80,门址,wgs84,
浦东新区浦三路4677弄,121.5462286,31.12349785,1,70,地产小区,wgs84,
嘉定区施晋村338号,121.1461014,31.3800607,,50,村庄,wgs84,
静安区北京西路1108号,121.4493962,31.23197846,1,80,门址,wgs84,
浦东新区南码头路1136弄,121.5087904,31.18623965,1,80,门址,wgs84,
闵行区沪闵路5366弄,121.3803179,31.09834394,1,75,楼号,wgs84,
黄浦区丽园路468号,121.4778558,31.20999148,1,80,门址,wgs84,
浦东新区营前村褚家宅,121.7412164,31.18896104,,50,村庄,wgs84,
徐汇区南丹路150弄,121.4258478,31.19122898,,50,NoClass,wgs84,
宝山区高跃路133弄,121.4682274,31.32063602,,50,NoClass,wgs84,
徐汇区斜土路2561弄,121.4402421,31.19059247,1,80,门址,wgs84,
宝山区南大路76弄,121.4018571,31.30170966,1,75,楼号,wgs84,
宝山区铁山路157号,121.4599652,31.37329578,1,80,门址,wgs84,
普陀区真北路1029弄,121.377785,31.23838615,,50,NoClass,wgs84,
虹口区公平路36号,121.503133,31.25233451,1,80,门址,wgs84,
杨浦区国权东路99弄,121.5198457,31.29036003,1,80,门址,wgs84,
黄浦区中山南一路101弄,121.4791606,31.20130702,,30,道路,wgs84,
浦东新区莲中路337弄,121.5541159,31.18360298,1,70,地产小区,wgs84,
静安区柳营路635弄,121.4525802,31.2671735,1,80,门址,wgs84,
虹口区祥德路143弄,121.4836181,31.27319266,1,80,门址,wgs84,
宝山区铁峰路2001弄,121.4503453,31.39813008,1,75,楼号,wgs84,
杨浦区许昌路900号,121.5164379,31.26453454,1,80,门址,wgs84,
浦东新区唐镇虹三村沈家宅,121.6688639,31.25572113,,50,村庄,wgs84,
宝山区共悦路415号,121.3958666,31.40649721,1,80,门址,wgs84,
宝山区呼兰路475号,121.4519735,31.34919004,1,80,门址,wgs84,
浦东新区庭安路191号,121.5772573,31.32683597,1,80,门址,wgs84,
闵行区江川路1370号,121.3786151,30.9998239,1,80,门址,wgs84,
黄浦区江阴街355弄,121.4865872,31.21587017,,30,道路,wgs84,
虹口区大连路345号,121.5036857,31.2651377,,30,道路,wgs84,
宝山区杨鑫路98弄,121.4458581,31.37388685,,50,NoClass,wgs84,
浦东新区高桥镇新建村钟家弄,121.5733997,31.36201854,,50,村庄,wgs84,
浦东新区上浦路165弄,121.4879139,31.14835614,1,80,门址,wgs84,
长宁区平塘路415弄,121.3595187,31.21674357,1,80,门址,wgs84,
松江区北松公路6700号,121.2645431,31.00649533,1,80,门址,wgs84,
浦东新区三林镇胡巷村张家宅,121.5187273,31.16408976,,50,村庄,wgs84,
杨浦区长阳路1400弄,121.5258264,31.26932285,1,80,门址,wgs84,
浦东新区三林镇懿德村吴家队吴家宅,121.5112344,31.12197021,,50,村庄,wgs84,
虹口区同心路1045弄,121.4638122,31.27682083,1,80,门址,wgs84,
黄浦区淡水路214弄,121.467957,31.21937641,1,80,门址,wgs84,
静安区青云路665号,121.4625251,31.26323951,1,80,门址,wgs84,
杨浦区海州路215弄,121.545238,31.27126254,1,80,门址,wgs84,
松江区泽悦路55弄,121.2416673,31.10043502,1,75,购物,wgs84,
杨浦区国和路1049号,121.5268135,31.32012915,1,80,门址,wgs84,
黄浦区海南西弄54号,121.4928171,31.21291763,1,80,门址,wgs84,
徐汇区复兴中路1260弄,121.4537062,31.21115668,1,70,生活服务,wgs84,
徐汇区长乐路685号,121.4445337,31.21812951,1,80,门址,wgs84,
宝山区蕰川路2236号,121.4313337,31.34686258,,30,道路,wgs84,
嘉定区封周路508弄,121.2657431,31.33364167,,50,NoClass,wgs84,
黄浦区南仓街118号,121.4959524,31.21488737,1,80,门址,wgs84,
宝山区德都路218弄,121.4198831,31.41245084,1,70,地产小区,wgs84,
静安区汉中路58号,121.4548907,31.2451784,1,80,门址,wgs84,
闵行区中春路1111号,121.3922738,31.04258355,1,80,门址,wgs84,
杨浦区铁岭路254号,121.5092015,31.28082223,,30,道路,wgs84,
浦东新区杜鹃路55弄,121.5427655,31.20516997,1,80,门址,wgs84,
嘉定区福海路700弄,121.2352883,31.36802123,1,75,楼号,wgs84,
浦东新区耀华路400弄,121.4805339,31.17585029,1,80,门址,wgs84,
浦东新区新园路436弄,121.6300678,31.31543624,,50,NoClass,wgs84,
普陀区远景路97弄,121.4428196,31.25337937,1,80,门址,wgs84,
黄浦区外仓桥街42号,121.4967009,31.21796467,1,80,门址,wgs84,
浦东新区胡桥村,121.6858118,31.04328484,,50,村庄,wgs84,
浦东新区芦潮路333弄,121.8546827,30.86616105,1,80,门址,wgs84,
黄浦区悦来街38弄,121.4947884,31.22238002,1,80,门址,wgs84,
杨浦区政修路11号,121.5052453,31.29691923,1,80,门址,wgs84,
浦东新区康杉路359弄,121.5572241,31.15426329,1,70,地产小区,wgs84,
浦东新区莱阳路817弄,121.5784933,31.28280861,1,70,地产小区,wgs84,
杨浦区平凉路1640号,121.5364658,31.26864613,1,80,门址,wgs84,
黄浦区思南路53号,121.4635335,31.21636956,1,80,门址,wgs84,
长宁区虹桥路1041弄,121.4063346,31.19913518,1,80,门址,wgs84,
宝山区塘后路285弄,121.4990759,31.40092261,,50,NoClass,wgs84,
静安区西康路920弄,121.4434711,31.23500177,,30,道路,wgs84,
徐汇区东安路364弄,121.450484,31.1922159,,50,NoClass,wgs84,
虹口区四平路417号,121.4880768,31.26952448,1,80,门址,wgs84,
浦东新区崂山路638弄,121.5205473,31.22614559,1,80,门址,wgs84,
虹口区新港路24号,121.5000005,31.2706132,1,80,门址,wgs84,
普陀区大渡河路1550弄52支弄,121.3910282,31.24876744,1,70,地产小区,wgs84,
闵行区普乐路425弄,121.4198303,31.11663673,,50,NoClass,wgs84,
浦东新区张杨路3680弄,121.5759915,31.25707696,1,70,地产小区,wgs84,
徐汇区漕溪二村,121.432638,31.17361007,1,70,地产小区,wgs84,
黄浦区中山南路200弄,121.4968653,31.22470912,1,80,门址,wgs84,
虹口区东余杭路218号,121.4887227,31.25344134,1,80,门址,wgs84,
黄浦区陕西南路345号,121.457846,31.20645936,1,80,门址,wgs84,
杨浦区抚顺路393弄,121.5049131,31.27888487,1,80,门址,wgs84,
徐汇区田林东路411弄,121.4224975,31.17449322,1,80,门址,wgs84,
黄浦区仪凤弄45弄,121.4813801,31.2207571,1,80,门址,wgs84,
宝山区祁北东路85弄,121.3467882,31.424708,1,80,餐饮,wgs84,
浦东新区上南路6500弄,121.5457591,31.12047748,1,70,地产小区,wgs84,
宝山区通南路388号,121.4640407,31.33745349,1,80,门址,wgs84,
静安区海防路117弄,121.442536,31.24066091,,30,道路,wgs84,
浦东新区新元南路正茂路交界口工地生活区,121.8255155,30.88198195,,30,道路,wgs84,
黄浦区山东北路83号,121.4772424,31.24233141,1,80,门址,wgs84,
浦东新区青艺路181弄,121.6756364,31.19825268,1,70,地产小区,wgs84,
黄浦区梦花街191弄,121.4831466,31.22075446,,30,道路,wgs84,
嘉定区尚学路69号,121.2930164,31.35615871,,30,道路,wgs84,
杨浦区许昌路1479弄,121.5087849,31.27272508,1,70,地产小区,wgs84,
黄浦区局门路165号,121.4760588,31.20933315,1,80,门址,wgs84,
虹口区北海宁路64号,121.482568,31.25378618,1,80,门址,wgs84,
虹口区丰镇路858号,121.4633495,31.30651016,1,80,门址,wgs84,
松江区强业路596号,121.1856948,31.11713089,1,80,门址,wgs84,
松江区陈春公路851弄,121.3281284,31.07106758,,50,NoClass,wgs84,
宝山区塔源路302弄,121.3924331,31.45482323,1,75,楼号,wgs84,
虹口区海宁路55弄,121.4809651,31.23548609,1,70,地产小区,wgs84,
徐汇区永康路201号,121.4500531,31.21150977,1,80,门址,wgs84,
浦东新区川沙新镇杜尹村,121.6969791,31.19824226,,30,道路,wgs84,
宝山区铁山路55号,121.4633613,31.36478687,1,80,门址,wgs84,
浦东新区唐镇前进村顾家宅,121.6377727,31.21048682,,50,村庄,wgs84,
黄浦区宁波路70号,121.4811265,31.24161463,1,80,门址,wgs84,
黄浦区制造局路705号,121.4811667,31.20316619,1,80,门址,wgs84,
黄浦区淮海中路609号,121.4627479,31.22202013,1,80,门址,wgs84,
宝山区德都路28弄,121.4220164,31.4047141,1,80,门址,wgs84,
松江区中凯路222号,121.2606633,31.04403649,1,80,门址,wgs84,
松江区沪亭南路1399弄,121.336008,31.10728112,,50,NoClass,wgs84,
闵行区虹泉路888号,121.3716985,31.17248133,1,80,门址,wgs84,
黄浦区新昌路87弄,121.4640276,31.23451622,1,80,门址,wgs84,
长宁区愚园路788弄,121.4244826,31.22061633,,30,道路,wgs84,
松江区新镇街499弄,121.3083854,31.0580027,1,70,地产小区,wgs84,
杨浦区殷行路280弄,121.5355398,31.33127035,1,70,地产小区,wgs84,
松江区庄家村,121.3159259,31.13322901,,50,村庄,wgs84,
浦东新区西三里桥路8弄,121.5022289,31.2013355,,50,NoClass,wgs84,
浦东新区光泽路120弄,121.6088302,31.33603595,1,80,门址,wgs84,
浦东新区临江村筠西队庞家宅,121.4717537,31.12012693,,50,村庄,wgs84,
杨浦区鞍山一村,121.5079829,31.27858488,1,70,地产小区,wgs84,
闵行区联明村,121.3388478,31.14159401,,50,村庄,wgs84,
浦东新区曹路镇顾东村苍龙桥,121.6573318,31.30152741,,30,道路,wgs84,
浦东新区高荷路428号,121.572337,31.33884929,1,80,门址,wgs84,
徐汇区冠生园路261弄,121.4212093,31.16409195,1,70,地产小区,wgs84,
浦东新区上南路5588号,121.5232485,31.12533913,1,80,门址,wgs84,
静安区曲沃路470弄,121.4404337,31.31528081,1,80,门址,wgs84,
松江区云逸路39弄,121.1857712,31.00633981,,30,道路,wgs84,
浦东新区沪南路2785号,121.5639683,31.14213392,1,80,门址,wgs84,
浦东新区大杨村,121.7468879,30.96389049,,50,村庄,wgs84,
徐汇区中漕路20号,121.430702,31.18579963,1,80,门址,wgs84,
虹口区天镇路144号,121.4958061,31.2693629,1,80,门址,wgs84,
闵行区莘松八村,121.364821,31.11193902,1,70,地产小区,wgs84,
虹口区安国路285号,121.5008767,31.26183721,1,80,门址,wgs84,
宝山区共康路169弄,121.4380415,31.32636665,1,80,门址,wgs84,
黄浦区广东路306号,121.481046,31.2347804,1,80,门址,wgs84,
黄浦区抚安街10号,121.4927984,31.22310072,1,80,门址,wgs84,
虹口区新嘉路14号,121.4845438,31.2589799,1,80,门址,wgs84,
浦东新区红枫路300弄,121.5867511,31.24482117,1,80,门址,wgs84,
浦东新区仓房村范家宅,121.5135518,31.36499735,,50,村庄,wgs84,
闵行区都会路1500号工地,121.4158233,31.0641302,,30,道路,wgs84,
虹口区平凉路67号,121.5114436,31.25430084,1,80,门址,wgs84,
闵行区友东路479号,121.3475681,31.12968992,1,80,门址,wgs84,
黄浦区柳市路78号,121.4943483,31.21389628,1,80,门址,wgs84,
黄浦区局门路221号,121.4763285,31.20852204,1,80,门址,wgs84,
浦东新区新场镇果园村,121.6316698,31.02189238,,50,村庄,wgs84,
静安区大统路988弄,121.4545307,31.25738297,,50,NoClass,wgs84,
宝山区真华路1800弄,121.4073139,31.29104214,1,80,门址,wgs84,
浦东新区浦明路258弄,121.5045206,31.2279647,1,70,地产小区,wgs84,
黄浦区江西中路391号,121.4810668,31.24232723,1,80,门址,wgs84,
宝山区逸仙路3001号,121.493755,31.34214983,1,80,门址,wgs84,
浦东新区浦东大道2639弄,121.5631867,31.26592656,1,70,地产小区,wgs84,
虹口区金山路43号,121.4867176,31.24672329,1,80,门址,wgs84,
虹口区瑞虹路38弄,121.4930848,31.26302244,1,80,门址,wgs84,
黄浦区河南中路1号,121.4812112,31.23432402,1,80,门址,wgs84,
宝山区松兰路382号,121.4433644,31.37565603,1,80,门址,wgs84,
浦东新区迅建村葛家宅,121.6864166,31.28495006,1,70,地产小区,wgs84,
浦东新区新建路118弄,121.7372819,31.17477491,1,70,地产小区,wgs84,
浦东新区龙阳路1211弄,121.5283767,31.20084606,1,70,地产小区,wgs84,
黄浦区徽宁路144号,121.4892345,31.21347664,1,80,门址,wgs84,
嘉定区嘉涛路60弄,121.3270265,31.26754285,1,80,门址,wgs84,
浦东新区唐镇虹二村,121.6511258,31.24264991,,50,村庄,wgs84,
浦东新区宣桥镇三灶村,121.7017195,31.07111586,,50,村庄,wgs84,
宝山区逸仙路3456弄,121.4968657,31.34842859,1,80,门址,wgs84,
青浦区振泾路,121.2708145,31.1692117,,30,道路,wgs84,
杨浦区平凉路1090号,121.5283995,31.26254918,1,80,门址,wgs84,
宝山区场北路39弄,121.4855177,31.40652468,,20,区县,wgs84,
浦东新区严桥路58弄,121.5216178,31.19299205,1,80,门址,wgs84,
杨浦区军工路1300号,121.541624,31.30706806,1,80,门址,wgs84,
奉贤区资福村,121.5992608,30.96893893,,50,村庄,wgs84,
黄浦区宁波路542弄,121.4727138,31.2388358,1,80,门址,wgs84,
闵行区龙吴路3355号,121.4497725,31.09650251,1,80,门址,wgs84,
徐汇区华容路85弄,121.4467574,31.18212499,1,80,门址,wgs84,
宝山区富桥路99号,121.4024875,31.37851158,1,80,门址,wgs84,
嘉定区科盛路1755弄,121.3298415,31.32439373,1,70,地产小区,wgs84,
徐汇区正阳路36号,121.4592707,31.20275486,1,80,门址,wgs84,
宝山区春雷路354弄,121.4286241,31.41305991,1,80,门址,wgs84,
宝山区锦伟路98号,121.3928466,31.39713273,1,80,门址,wgs84,
宝山区罗和路118弄,121.337942,31.38312472,1,80,门址,wgs84,
嘉定区平城路388弄,121.2512522,31.40159972,,50,NoClass,wgs84,
徐汇区宛平路42号,121.4364166,31.20538882,1,80,门址,wgs84,
徐汇区斜土路1519弄,121.4481346,31.19645263,,30,道路,wgs84,
徐汇区华泾路999弄,121.4394754,31.11945995,1,75,宾馆,wgs84,
杨浦区军工路334号,121.5518025,31.28908013,1,80,门址,wgs84,
黄浦区西仓桥街161弄,121.4842392,31.22204318,1,80,餐饮,wgs84,
闵行区张虹路293号,121.4083391,31.18930834,1,80,门址,wgs84,
黄浦区四牌楼路115号,121.4910269,31.22561152,1,80,门址,wgs84,
浦东新区小湾村奚家宅,121.6994961,31.23127779,,50,NoClass,wgs84,
徐汇区罗秀路955弄,121.4265194,31.13275667,,50,NoClass,wgs84,
松江区九亭大街252弄,121.3313931,31.13467966,,50,NoClass,wgs84,
浦东新区云汉路779弄,121.8065161,30.91154029,,50,NoClass,wgs84,
浦东新区新浦路587弄,121.5262057,31.17158175,1,70,地产小区,wgs84,
浦东新区利津路729弄,121.585888,31.27686537,1,80,门址,wgs84,
杨浦区延吉西路5号,121.5193607,31.28298434,1,80,门址,wgs84,
静安区共和新路802弄,121.4587566,31.2588258,1,80,门址,wgs84,
浦东新区成山路1488弄,121.522603,31.17816647,,50,NoClass,wgs84,
静安区茂名北路151号,121.4554084,31.22826842,1,80,门址,wgs84,
浦东新区张江镇中心村小桥宅,121.6540783,31.18872201,,50,村庄,wgs84,
黄浦区铁道路776弄,121.4710297,31.19714047,1,80,门址,wgs84,
杨浦区国和一村,121.5247753,31.31848773,1,70,地产小区,wgs84,
黄浦区中山南路247弄,121.4947408,31.20962312,,30,道路,wgs84,
长宁区茅台路364号,121.3917663,31.2117891,1,80,门址,wgs84,
普陀区同普路1175弄,121.3666136,31.23327937,1,80,门址,wgs84,
宝山区张桥街26号,121.3423996,31.41116696,,30,道路,wgs84,
宝山区毛家路400弄,121.3822612,31.42860992,,30,道路,wgs84,
黄浦区肇嘉浜路18号,121.4612583,31.20703882,1,80,门址,wgs84,
闵行区莘南花苑二村,121.3938567,31.11147483,1,70,地产小区,wgs84,
杨浦区市光路176号,121.5307747,31.32263913,1,75,楼号,wgs84,
黄浦区西藏南路1341弄,121.4835821,31.20790153,1,80,门址,wgs84,
黄浦区淮海中路567弄,121.463582,31.22211418,1,80,门址,wgs84,
杨浦区平凉路1101弄,121.5280133,31.26380255,1,70,地产小区,wgs84,
浦东新区新德西路99弄,121.6740085,31.19341497,1,80,门址,wgs84,
宝山区虎林路502号,121.4523854,31.3408143,1,80,门址,wgs84,
闵行区疏影路711弄,121.3632976,31.12192542,,50,NoClass,wgs84,
浦东新区三林镇南阜村高树队西汤家宅,121.5159766,31.13265394,,50,村庄,wgs84,
静安区柳营路1025弄,121.4455494,31.26383082,1,80,门址,wgs84,
浦东新区周康路81号,121.5675737,31.11486368,1,80,门址,wgs84,
杨浦区彰武路72号,121.5048894,31.28323386,1,80,门址,wgs84,
虹口区山阴路132弄,121.480042,31.26816248,1,80,门址,wgs84,
虹口区公安街153弄,121.4739832,31.30379836,1,70,地产小区,wgs84,
松江区泗宝路298弄,121.2503054,31.1180208,1,70,地产小区,wgs84,
黄浦区肇周路421弄,121.4773864,31.21377616,,50,NoClass,wgs84,
浦东新区新虹村瞿家宅,121.644264,31.24488544,,50,村庄,wgs84,
松江区沪松公路2516弄,121.2605198,31.08206499,,30,道路,wgs84,
虹口区运光路71弄,121.4910585,31.292331,1,70,地产小区,wgs84,
宝山区杨泰路99弄,121.445331,31.36684242,1,80,门址,wgs84,
普陀区长寿路360号,121.4342334,31.24378587,1,80,门址,wgs84,
黄浦区制造局路405号,121.4800215,31.20789224,1,80,门址,wgs84,
浦东新区妙川路300弄,121.6930932,31.17840638,,50,NoClass,wgs84,
浦东新区共一村包家宅,121.7532811,31.20213863,,50,村庄,wgs84,
浦东新区年家浜东路129弄,121.5882011,31.11666746,1,80,门址,wgs84,
松江区沪亭南路290弄,121.3269711,31.1220565,,50,NoClass,wgs84,
徐汇区安福路49弄,121.442492,31.21651803,1,80,门址,wgs84,
浦东新区张杨北路4555弄,121.5828022,31.33365584,1,75,楼号,wgs84,
黄浦区思南路97号,121.4651068,31.21293797,1,80,门址,wgs84,
宝山区锦秋路2039号,121.3641862,31.32394551,1,80,门址,wgs84,
黄浦区福佑路223号,121.4873991,31.2302021,1,80,门址,wgs84,
闵行区航东路775弄,121.3474971,31.18150038,,50,NoClass,wgs84,
黄浦区牌楼路41弄,121.4821081,31.21567152,1,80,门址,wgs84,
浦东新区浦明路99弄,121.5037485,31.23166568,1,80,门址,wgs84,
浦东新区前进村顾家宅,121.7477027,31.1208646,,50,村庄,wgs84,
虹口区东大名路999号,121.503252,31.25492981,1,80,门址,wgs84,
浦东新区海鹏路380弄,121.6657929,31.28976523,,30,道路,wgs84,
浦东新区杨思路502弄,121.490156,31.1626162,1,75,楼号,wgs84,
徐汇区小木桥路515弄,121.4555649,31.19627417,,30,道路,wgs84,
嘉定区沪宜公路1868弄,121.2380316,31.3746905,1,70,地产小区,wgs84,
浦东新区张江镇劳动村孙家宅,121.6242216,31.18204498,,50,村庄,wgs84,
普陀区澳门路356号,121.4370496,31.24889321,1,80,门址,wgs84,
松江区新南村,121.2762979,31.11176287,,50,村庄,wgs84,
宝山区大康路828号,121.4209994,31.32944959,1,80,门址,wgs84,
黄浦区徐家汇路177号,121.4727645,31.21113385,1,80,门址,wgs84,
闵行区水清路1460弄,121.3682298,31.13609097,1,75,宾馆,wgs84,
虹口区奎照路871弄,121.462113,31.3020948,1,70,地产小区,wgs84,
静安区青云路435弄,121.4659532,31.26528272,1,70,地产小区,wgs84,
青浦区池泾浜路50弄,121.1303032,31.18457284,,50,NoClass,wgs84,
宝山区长江路440弄,121.4773842,31.34723373,1,80,门址,wgs84,
黄浦区南车站路69弄,121.4862618,31.21295661,1,80,门址,wgs84,
徐汇区丰谷路285弄,121.4504633,31.16853375,1,75,楼号,wgs84,
杨浦区杨树浦路1730号,121.537173,31.26095588,1,80,门址,wgs84,
青浦区华青南路610弄,121.1298662,31.14878295,,50,NoClass,wgs84,
浦东新区一六村李家队北李家宅,121.7366211,31.12601129,,50,村庄,wgs84,
虹口区东体育会路100弄,121.4805409,31.27993689,1,70,地产小区,wgs84,
浦东新区中界村周家队周家宅,121.563543,31.19131559,,50,村庄,wgs84,
虹口区玉田支路21号,121.487994,31.28279044,1,80,门址,wgs84,
徐汇区广元西路126号,121.4292043,31.19725393,1,80,门址,wgs84,
浦东新区航定路568弄,121.5860101,31.02930587,,50,NoClass,wgs84,
闵行区北翟路1456弄,121.3354596,31.22709334,1,80,门址,wgs84,
虹口区天宝路228弄,121.4948996,31.27061291,,30,道路,wgs84,
普陀区中山北路2605弄,121.4175669,31.24565214,1,80,门址,wgs84,
徐汇区嘉善路140弄,121.4544671,31.21227756,1,80,门址,wgs84,
宝山区革新路29号,121.4480699,31.34027471,1,80,门址,wgs84,
浦东新区大星村张家宅,121.7172721,31.22421124,,50,村庄,wgs84,
虹口区祥德路48弄,121.4805649,31.27220122,1,70,地产小区,wgs84,
静安区江苏路65弄,121.424324,31.22531308,1,70,地产小区,wgs84,
闵行区北桥西街,121.3773688,31.11510315,,20,区县,wgs84,
杨浦区内江路9号,121.5502159,31.27529394,1,80,门址,wgs84,
长宁区淞虹路905弄,121.3586531,31.20687739,1,75,楼号,wgs84,
徐汇区康健路77弄,121.4240288,31.16776507,1,70,地产小区,wgs84,
静安区高平路847号,121.4221588,31.29344826,1,80,门址,wgs84,
静安区洛川东路320弄,121.4586391,31.27216645,1,70,地产小区,wgs84,
普陀区西谈家渡路39弄,121.4180547,31.23750883,,30,道路,wgs84,
