地址,经度,纬度,是否精确,可信度,地址类型,坐标系,错误
复旦大学第二附属中学,121.4980327,31.29365392,,70,教育,wgs84,
上海市同济初级中学,121.506069,31.30437979,1,70,教育,wgs84,
复旦大学附属小学,121.5009624,31.29430965,,70,教育,wgs84,
上海市育鹰学校,121.5128523,31.29274108,1,70,教育,wgs84,
上海市杨浦区政立路第二小学,121.5030674,31.30945563,1,70,教育,wgs84,
上海理工大学附属小学,121.5355357,31.29388783,,70,教育,wgs84,
上海市杨浦区水丰路小学,121.5339969,31.2889038,1,70,教育,wgs84,
上海市杨浦区长白二村小学分校,121.5372746,31.30245978,1,70,教育,wgs84,
上海市杨浦区水丰路小学分校,121.5282801,31.292412,1,70,教育,wgs84,
上海市杨浦区内江路第二小学,121.5388575,31.28644295,1,70,教育,wgs84,
上海市杨浦区国和小学,121.5246958,31.32313589,1,70,教育,wgs84,
上海市鞍山实验中学,121.5363434,31.30776819,1,70,教育,wgs84,
上海市惠民中学,121.5211138,31.26079038,1,70,教育,wgs84,
上海理工大学附属初级中学,121.5400567,31.28484455,,70,教育,wgs84,
上海市包头中学,121.5335195,31.32466161,1,70,教育,wgs84,
上海市杨浦区打虎山路第一小学,121.5027768,31.27664047,1,70,教育,wgs84,
上海民办打一外国语小学,121.5115732,31.27880803,1,70,教育,wgs84,
上海市浦东新区曹路打一小学(浦东),121.6666562,31.29184849,1,70,教育,wgs84,
上海市杨浦区同济小学,121.5048251,31.2867386,1,70,教育,wgs84,
上海市杨浦区教师进修学院,121.504682,31.29807999,1,70,教育,wgs84,
上海市杨浦区教师进修学院附属幼儿园,121.5083771,31.28277785,1,70,教育,wgs84,
上海市杨浦区教师进修学院实验小学,121.5207642,31.27837524,1,70,教育,wgs84,
上海市杨浦区教师进修学院附属中学,121.5161327,31.27395533,1,70,教育,wgs84,
上海民办杨浦实验学校,121.5370616,31.32698572,,50,NoClass,wgs84,
上海市杨浦区控江二村小学,121.5237225,31.28918181,1,70,教育,wgs84,
上海市杨浦区凤城新村小学,121.5132081,31.28526733,1,70,教育,wgs84,
上海市杨浦区二联小学,121.5230511,31.28499753,1,70,教育,wgs84,
上海市杨浦区控江二村小学分校,121.5319504,31.2758112,1,70,教育,wgs84,
上海市杨浦区翔殷路小学,121.5331332,31.30927798,1,70,教育,wgs84,
上海市杨浦区六一小学,121.5171275,31.30735543,,50,NoClass,wgs84,
上海市杨浦区回民小学,121.5306463,31.303492,1,70,教育,wgs84,
上海市杨浦区市光新村第一小学,121.5317256,31.31981846,1,70,教育,wgs84,
上海市杨浦区政立路小学,121.48869,31.31065755,1,70,教育,wgs84,
上海市杨浦区世界小学,121.5140474,31.31595772,1,70,教育,wgs84,
上海市杨浦区平凉路第三小学,121.5470468,31.27676528,1,70,教育,wgs84,
上海市杨浦区建设小学,121.5399477,31.26774199,1,70,教育,wgs84,
上海市杨浦区杭州路第一小学,121.529707,31.26242723,1,70,教育,wgs84,
上海市杨浦区平凉路第四小学,121.5521513,31.28058756,1,70,教育,wgs84,
上海市杨浦区杨浦小学,121.5211049,31.30275602,1,70,教育,wgs84,
上海市第二师范学校附属小学,121.4949516,31.27892258,1,70,教育,wgs84,
上海市杨浦区杨浦小学分校,121.5247859,31.27017413,1,70,教育,wgs84,
上海市民办阳浦小学,121.532247,31.26920216,1,70,教育,wgs84,
上海市杨浦区内江路小学,121.5443799,31.28027835,,30,道路,wgs84,
上海音乐学院实验学校,121.4479714,31.19078849,,70,教育,wgs84,
上海市市光学校,121.5346246,31.3227767,1,70,教育,wgs84,
上海市杨浦区中原路小学,121.5305578,31.32976066,1,70,教育,wgs84,
上海市杨浦区复旦科技园小学,121.5192625,31.33443879,1,70,教育,wgs84,
上海市黄浦区曹光彪小学,121.4678618,31.23712564,1,70,教育,wgs84,
上海市黄浦区蓬莱路第二小学,121.485615,31.22016104,1,70,教育,wgs84,
上海市黄浦区回民小学,121.4921431,31.22588515,1,70,教育,wgs84,
上海市黄浦区卢湾三中心小学,121.4673675,31.21946888,1,70,教育,wgs84,
上海市黄浦区董家渡路第二小学,121.4917821,31.22478539,1,70,教育,wgs84,
上海市七色花小学,121.4642755,31.22195543,1,70,教育,wgs84,
上海市大同中学,121.4884775,31.20684787,1,70,教育,wgs84,
上海市市南中学,121.4918776,31.2154896,1,70,教育,wgs84,
上海市民办立达中学,121.4884523,31.20995389,1,70,教育,wgs84,
上海市大同初级中学,121.4884775,31.20684787,1,70,教育,wgs84,
上海市尚文中学,121.4982615,31.21994126,1,70,教育,wgs84,
上海市黄浦学校,121.4793916,31.21517881,1,70,教育,wgs84,
上海市黄浦区蓬莱路第二小学,121.485615,31.22016104,1,70,教育,wgs84,
上海市格致中学,121.469064,30.95532024,1,70,教育,wgs84,
上海市浦光中学,121.7126847,31.21588555,1,70,教育,wgs84,
上海市格致初级中学,121.4675671,31.23770812,1,70,教育,wgs84,
上海市应昌期围棋学校,121.4779051,31.24007513,1,70,教育,wgs84,
上海市黄浦区曹光彪小学,121.4678618,31.23712564,1,70,教育,wgs84,
上海市黄浦区第一中心小学,121.4979568,31.22198994,1,70,教育,wgs84,
上海市黄浦区北京东路小学,121.4746817,31.24129553,1,70,教育,wgs84,
上海市裘锦秋实验学校,121.4608457,31.24198095,1,70,教育,wgs84,
上海市黄浦区四川南路小学,121.4855741,31.23260483,1,70,教育,wgs84,
上海市黄浦区海华小学,121.4633662,31.20432746,1,70,教育,wgs84,
上海市黄浦区瞿溪路小学,121.4692151,31.20094504,1,70,教育,wgs84,
上海市黄浦区卢湾二中心小学,121.4581569,31.21632461,1,70,教育,wgs84,
上海市黄浦区中华路第三小学,121.4930286,31.21905747,,50,NoClass,wgs84,
上海市黄浦区卢湾一中心小学,121.4695771,31.21381984,1,70,教育,wgs84,
上海市黄浦区梅溪小学,121.4846405,31.21746353,1,70,教育,wgs84,
上海市黄浦区报童小学,121.4785175,31.23704321,1,70,教育,wgs84,
上海市实验小学,121.0917803,31.13901918,1,70,教育,wgs84,
上海市黄浦区复兴东路第三小学,121.4823177,31.22316305,1,70,教育,wgs84,
上海师范专科学校附属小学,121.4775851,31.20400292,1,70,教育,wgs84,
上海市黄浦区新凌小学,121.482483,31.20531794,1,70,教育,wgs84,
上海市黄浦区光明小学,121.4892726,31.22545804,1,70,教育,wgs84,
上海市黄浦区淮海中路小学,121.4617042,31.22197729,1,70,教育,wgs84,
上海师范大学附属卢湾实验小学,121.3588757,31.11242843,,70,教育,wgs84,
上外-黄浦外国语小学,121.4890811,31.20224623,1,70,教育,wgs84,
上海市黄浦区巨鹿路第一小学,121.4556025,31.21748387,1,70,教育,wgs84,
上海市黄浦区徽宁路第三小学,121.488088,31.21335028,1,70,教育,wgs84,
上海市黄浦区复兴中路第二小学,121.4682451,31.21761203,,50,NoClass,wgs84,
上海市黄浦区重庆北路小学,121.4647267,31.22784446,,50,NoClass,wgs84,
上海市向明中学,121.4961089,31.07605648,1,70,教育,wgs84,
上海市向明初级中学,121.4535033,31.22469442,1,70,教育,wgs84,
上海市清华中学,121.4574614,31.21619812,1,70,教育,wgs84,
上海市黄浦区卢湾二中心小学,121.4581569,31.21632461,1,70,教育,wgs84,
上海市七色花小学,121.4642755,31.22195543,1,70,教育,wgs84,
上海市闸北第八中学,121.4320726,31.30323816,1,70,教育,wgs84,
上海市闸北成功教育实验中学,121.4568761,31.26924737,1,70,教育,wgs84,
上海市闸北成功教育实验小学,121.4333027,31.28605858,1,70,教育,wgs84,
上海市静安区中兴路小学,121.4565664,31.25457409,1,70,教育,wgs84,
上海市崇明区堡镇第二小学（崇明）,121.6189866,31.53611521,1,70,教育,wgs84,
上海市崇明区长江小学（崇明）,121.5359685,31.67518272,1,70,教育,wgs84,
上海市六灶中学（浦东）,121.6945653,31.1156275,1,70,教育,wgs84,
上海市奉贤区阳光外国语学校（奉贤）,121.4363421,30.91513301,,50,NoClass,wgs84,
上海市奉贤区青溪中学（奉贤）,121.5138815,30.92697783,1,70,教育,wgs84,
上海市大宁国际小学（东校）,121.4560612,31.28513424,1,70,教育,wgs84,
上海市大宁国际小学（西校）,121.4560612,31.28513424,1,70,教育,wgs84,
上海市风华初级中学东部校区,121.4502251,31.27177023,1,70,教育,wgs84,
上海市风华初级中学西部校区,121.4514133,31.27603336,1,75,商务大厦,wgs84,
上海市静安区南西幼儿园,121.4248632,31.22589174,1,70,教育,wgs84,
上海市静安南西崇明新城幼儿园,121.4424019,31.22937993,,20,区县,wgs84,
上海市静安区彭浦新村第一小学,121.4552615,31.31079603,,50,NoClass,wgs84,
上海市静安区第四中心小学,121.4421505,31.30886866,1,70,教育,wgs84,
上海市静安区彭浦新村第五小学,121.4474176,31.31399429,1,70,教育,wgs84,
上海市静安区临汾路小学,121.4389659,31.31122528,1,70,教育,wgs84,
上海市闸北田家炳小学,121.434304,31.30571069,1,70,教育,wgs84,
上海市静安区保德路小学,121.449671,31.3174035,1,70,教育,wgs84,
上海市静安区阳曲路小学,121.4559232,31.31062297,1,70,教育,wgs84,
上海市静安区科技学校（总部）,121.455988,31.31424883,1,70,教育,wgs84,
上海市静安区科技学校（分部）,121.455988,31.31424883,1,70,教育,wgs84,
上海市静安区三泉路小学,121.4350543,31.31691037,1,70,教育,wgs84,
上海市静安区景凤路小学,121.4534437,31.32112599,1,70,教育,wgs84,
上海市静安区共康小学,121.42964,31.31766534,1,70,教育,wgs84,
上海市三泉学校,121.4334158,31.30852768,1,70,教育,wgs84,
上海民办彭浦实验小学,121.4457432,31.31814963,1,70,教育,wgs84,
上海市静安区彭浦新村第一小学,121.4552615,31.31079603,,50,NoClass,wgs84,
上海市静安区科技学校（总部）,121.455988,31.31424883,1,70,教育,wgs84,
上海市静安区科技学校（分部）,121.455988,31.31424883,1,70,教育,wgs84,
上海市静安区阳曲路小学,121.4559232,31.31062297,1,70,教育,wgs84,
上海市第一师范附属小学,121.4338781,31.22802947,1,70,教育,wgs84,
上海市第一师范附属小学崇明江帆小学,121.4284334,31.62944145,1,70,教育,wgs84,
上海市静安区闸北实验小学（大宁校）,121.4340042,31.2771877,1,70,休闲娱乐,wgs84,
上海市静安区闸北实验小学（龙盛校）,121.4430495,31.2720733,1,70,教育,wgs84,
上海市静安区闸北实验小学（明德校）,121.4464772,31.26644524,1,70,教育,wgs84,
上海市虹口区广灵路小学,121.4739464,31.28351896,1,70,教育,wgs84,
上海市虹口区广中路小学,121.4724997,31.27643678,1,70,教育,wgs84,
上海市虹口区柳营路小学,121.464626,31.27369642,1,70,教育,wgs84,
上海市虹口区第六中心小学,121.4626336,31.27878795,1,70,教育,wgs84,
上海市虹口区多伦同心小学,121.4727993,31.2695765,1,70,教育,wgs84,
上海市虹口区崇明路小学,121.4804431,31.24811325,1,70,教育,wgs84,
上海市虹口区第一中心小学,121.4839546,31.25105448,1,70,教育,wgs84,
上海市虹口区中州路第一小学,121.477888,31.25427157,1,70,教育,wgs84,
民办新北郊初级中学,103.0554908,30.02622019,,25,乡镇,wgs84,
上海市北郊学校,121.4882211,31.27802891,1,70,教育,wgs84,
上海市长青学校,121.497587,31.25567718,1,70,教育,wgs84,
上海市霍山学校,121.5080749,31.25672024,1,70,教育,wgs84,
上海市继光初级中学,121.4936039,31.26145633,1,70,教育,wgs84,
上海市澄衷初级中学,121.4985557,31.25372967,1,70,教育,wgs84,
上海市民办新复兴初级中学,121.4781635,31.26753504,1,70,教育,wgs84,
上海市复兴实验中学,121.4701818,31.29080709,1,70,教育,wgs84,
上海市虹口区教育学院实验中学,121.4796936,31.26225314,1,70,教育,wgs84,
上海市虹口区教师进修学院附属中学,121.4814475,31.27496015,1,70,教育,wgs84,
上海市虹口区第三中心小学,121.4812841,31.26761269,1,70,教育,wgs84,
上海市虹口区祥德路小学,121.4841472,31.27276805,1,70,教育,wgs84,
上海市虹口区四川北路第一小学,121.479991,31.26161716,1,70,教育,wgs84,
上海市虹口区四川北路第二小学,121.4796271,31.25801451,1,70,教育,wgs84,
上海市虹口区第四中心小学,121.4801014,31.28529344,1,70,教育,wgs84,
上海市民办四中心实验小学,121.4951889,31.29137803,1,70,教育,wgs84,
上海市虹口区曲阳第三小学,121.4907831,31.28225041,1,70,教育,wgs84,
上海市民办新华初级中学,121.477467,31.25447001,1,70,教育,wgs84,
华东师范大学第一附属初级中学,121.3955618,31.21253395,,70,教育,wgs84,
上海市鲁迅初级中学,121.4826922,31.26612487,1,70,教育,wgs84,
上海市民办迅行中学,121.4892428,31.28073122,1,70,教育,wgs84,
上海外国语大学附属民办外国语小学,121.5901763,31.26930742,,70,教育,wgs84,
上海市虹口区第一外国语小学,121.4679582,31.29630241,1,70,教育,wgs84,
上海市虹口区红旗小学,121.477321,31.30094201,1,70,教育,wgs84,
上海市虹口区丰镇第一小学,121.4746854,31.30745028,1,70,教育,wgs84,
上海市虹口区凉城第二小学,121.4706192,31.29853076,1,70,教育,wgs84,
上海市虹口区凉城第三小学,121.4636325,31.29857624,1,70,教育,wgs84,
上海市虹口区凉城第四小学,121.4650019,31.30444283,1,70,教育,wgs84,
上海市行知中学,121.4965245,31.40491141,,50,NoClass,wgs84,
上海市行知实验中学,121.4136277,31.28735853,1,70,教育,wgs84,
上海市宝山区行知外国语学校,121.3674256,31.32464849,1,70,教育,wgs84,
上海市宝山区行知小学,121.4090477,31.28392749,1,70,教育,wgs84,
上海市宝山区行知实验幼儿园,121.4002111,31.28397669,1,70,教育,wgs84,
行知二中,121.4056224,31.31944623,,50,NoClass,wgs84,
行中中学,121.3366254,31.46441379,,50,NoClass,wgs84,
上海市罗店中学,121.3432346,31.42829465,1,70,教育,wgs84,
上海市罗泾中学,121.3306632,31.48508241,1,70,教育,wgs84,
上海市罗南中学,121.3592322,31.38995216,1,70,教育,wgs84,
上海市宝山区陈伯吹中学,121.3332769,31.4127768,1,70,教育,wgs84,
上海市宝山区罗店中心校,121.340437,31.42727434,1,70,教育,wgs84,
上海市宝山区罗南中心校,121.3561731,31.38526113,1,70,教育,wgs84,
上海市宝山区罗泾中心校,121.3295795,31.48683584,1,70,教育,wgs84,
上海市宝山区罗阳小学,121.3370552,31.41738244,1,70,教育,wgs84,
上海市宝山区美罗家园第一小学,121.3396367,31.38665102,1,70,教育,wgs84,
上海大学附属中学,121.3891637,31.3171223,,70,教育,wgs84,
上海市宝山区上海大学附属中学实验学校,121.3862298,31.31145152,1,70,教育,wgs84,
上海大学附属学校,121.3680669,31.31384057,,70,教育,wgs84,
上海大学附属小学,121.3812636,31.31352882,,70,教育,wgs84,
上海市宝山区第三中心小学,121.4379547,31.33787412,1,70,教育,wgs84,
上海市宝山区红星小学,121.4517607,31.33631511,1,70,教育,wgs84,
上海市宝山区长江路小学,121.4834626,31.3479953,1,70,教育,wgs84,
上海市宝山区通河新村小学,121.4444161,31.33945644,1,70,教育,wgs84,
上海市宝山区通河新村第二小学,121.4484014,31.33505049,1,70,教育,wgs84,
上海市宝山区通河新村第三小学,121.4441098,31.33367679,1,70,教育,wgs84,
上海市宝山区呼玛路小学,121.4405355,31.34310644,1,70,教育,wgs84,
上海市宝山区虎林路小学,121.4478093,31.34433727,1,70,教育,wgs84,
上海市宝山区泗塘新村小学,121.4478727,31.34075072,1,70,教育,wgs84,
上海市宝山区第一中心小学,121.4919388,31.39721415,1,70,教育,wgs84,
上海市宝山区淞兴路第一小学,121.4961895,31.37563414,1,70,教育,wgs84,
上海市宝山区同泰路小学,121.4905807,31.38107102,1,70,教育,wgs84,
上海市宝山区水产路小学,121.4894294,31.3853217,1,70,教育,wgs84,
上海市宝山区海滨小学,121.4886441,31.37694147,1,70,教育,wgs84,
上海市宝山区永清路小学,121.4920922,31.3891572,1,70,教育,wgs84,
上海市宝山区淞滨路小学,121.4904943,31.37503196,1,70,教育,wgs84,
上海市宝山区泗东小学,121.4815089,31.3695063,1,70,教育,wgs84,
上海市宝山区和衷小学,121.4948359,31.38510603,1,70,教育,wgs84,
上海市宝山区实验小学,121.4804616,31.40886674,1,70,教育,wgs84,
上海市宝山区广育小学,121.4834774,31.39299151,1,70,教育,wgs84,
上海市宝山区宝林路第三小学,121.4873688,31.40860351,1,70,教育,wgs84,
上海市宝山区月浦新村第二小学,121.4174051,31.41764627,1,70,教育,wgs84,
上海市宝山区月浦新村第三小学,121.4219201,31.41591724,1,70,教育,wgs84,
上海市宝山区乐业小学,121.4297507,31.41108567,1,70,教育,wgs84,
上海市宝山区同达小学,121.4205961,31.40972168,1,70,教育,wgs84,
上海市宝山区石洞口小学,121.3966546,31.45266918,1,70,教育,wgs84,
上海市虎林中学,121.4519669,31.34165854,1,70,教育,wgs84,
上海市呼玛中学,121.4445317,31.34524314,1,70,教育,wgs84,
华东师范大学宝山实验学校,121.4272532,31.33029347,1,70,教育,wgs84,
上海市吴淞第二中学,121.4795829,31.34721014,1,70,教育,wgs84,
上海市宝山区高境镇第四中学,121.4480431,31.32623338,1,70,教育,wgs84,
上海市泗塘第二中学,121.4503097,31.33171005,1,70,教育,wgs84,
上海市崇明区建设中学,121.4514607,31.6652333,1,70,教育,wgs84,
上海市崇明区三星中学,121.2838328,31.76157473,1,70,教育,wgs84,
上海市崇明区崇西中学,121.3923147,31.62454032,,20,区县,wgs84,
上海市崇明区港西中学,121.4115379,31.69428104,1,70,教育,wgs84,
上海市崇明区育林中学,121.4038103,31.63692999,1,70,教育,wgs84,
上海市崇明区大同中学,121.4842948,31.62952851,1,70,教育,wgs84,
上海市崇明区大新中学,121.5267354,31.5851412,1,70,教育,wgs84,
上海市崇明区长江中学,121.5359685,31.67518272,1,70,教育,wgs84,
上海市崇明区东门小学（江山校区）,121.4055587,31.6259778,1,70,教育,wgs84,
上海市崇明区东门小学（东华校区）,121.4590256,31.61993874,1,70,教育,wgs84,
上海市崇明区东门中学（江山校区）,121.4065119,31.62774734,1,70,教育,wgs84,
上海市崇明区东门中学（城东校区）,121.4557282,31.61605422,1,70,教育,wgs84,
上海市崇明区横沙中学,121.8436067,31.34491619,1,70,教育,wgs84,
上海市崇明区横沙小学,121.8419484,31.34376912,1,70,教育,wgs84,
上海市崇明区横沙幼儿园,121.8405584,31.34344715,1,70,教育,wgs84,
上海市崇明区实验小学（实验校区）,121.3552851,31.68423854,1,70,教育,wgs84,
上海市崇明区实验小学（江口校区）,121.3552851,31.68423854,1,70,教育,wgs84,
上海市崇明区实验中学（西园校区）,121.3857213,31.62914527,1,70,教育,wgs84,
上海市崇明区实验中学（江口校区）,121.3857213,31.62914527,1,70,教育,wgs84,
上海市崇明区西门小学（西门校区）,121.4100599,31.68004003,1,70,教育,wgs84,
上海市崇明区西门小学（港西校区）,121.4100599,31.68004003,1,70,教育,wgs84,
上海市崇明区新海学校（新海校区）,121.2909224,31.82292099,1,70,地产小区,wgs84,
上海市崇明区新海学校（海桥校区）,121.2949042,31.81973026,1,70,教育,wgs84,
上海市崇明区莺莺艺术幼儿园（东门园区）,121.4008708,31.63204016,1,70,教育,wgs84,
上海市崇明区莺莺艺术幼儿园（明南园区）,121.4157586,31.65236814,1,70,地产小区,wgs84,
上海市崇明区莺莺艺术幼儿园（鳌山园区）,121.4582262,31.62047274,1,70,教育,wgs84,
上海市崇明区长兴小学（丰福路校区）,121.7028117,31.38778967,1,70,教育,wgs84,
上海市崇明区长兴小学（凤凰校区）,121.6854221,31.38961376,1,70,教育,wgs84,
上海市崇明区长兴小学（元沙校区）,121.7177562,31.38730275,1,70,教育,wgs84,
上海市崇明区长兴小学（前卫校区）,121.7177562,31.38730275,1,70,教育,wgs84,
上海市第一师范附属小学,121.4338781,31.22802947,1,70,教育,wgs84,
上海市第一师范附属小学崇明江帆小学,121.4284334,31.62944145,1,70,教育,wgs84,
上海市奉教院附小,121.4495963,30.94024769,1,70,教育,wgs84,
上海市奉贤区洪庙小学,121.6815376,30.92853377,1,70,教育,wgs84,
上海市奉贤区海湾小学,121.5213709,30.83922957,1,70,教育,wgs84,
上海市奉贤区奉城二小,121.6370507,30.91604641,1,70,教育,wgs84,
上海市奉贤区四团小学,121.7235669,30.94089682,1,70,教育,wgs84,
上海市奉贤区弘文学校,121.4766795,30.91168787,1,70,教育,wgs84,
上海市奉贤区平安学校,121.7281415,30.90184337,1,70,教育,wgs84,
上海市奉贤区邵厂学校,121.7575097,30.90706054,1,70,教育,wgs84,
上海市奉贤区五四学校,121.7330222,30.86467627,1,70,教育,wgs84,
上海市奉贤区柘林学校,121.4710447,30.83108521,1,70,教育,wgs84,
奉贤区华亭学校联盟体,121.4675218,30.92154344,1,70,教育,wgs84,
上海市奉贤区华亭学校,121.2824301,31.469596,1,70,教育,wgs84,
上海市奉贤区齐贤学校,121.5037935,30.95621361,1,70,教育,wgs84,
上海市奉贤区星火学校,121.5631246,30.8635804,1,70,教育,wgs84,
上海市奉贤区新寺学校,121.4570039,30.86813284,1,70,教育,wgs84,
上海市奉贤区汇贤中学,121.4629731,30.92525094,1,70,教育,wgs84,
上海市奉贤区古华中学,121.4622479,30.91623303,1,70,教育,wgs84,
上海市奉贤区肖塘中学,121.4338325,30.96340794,1,70,教育,wgs84,
上海市奉贤区头桥中学,121.6394686,30.96112874,1,70,教育,wgs84,
上海市奉贤区金水苑中学,121.4868426,30.95989058,1,70,教育,wgs84,
上海市奉贤区青村中学,121.5798991,30.92351873,1,70,教育,wgs84,
上海市奉贤区奉浦中学,121.4545472,30.94450239,,25,乡镇,wgs84,
上海市奉贤区江海幼儿园,121.450477,30.90342272,1,70,教育,wgs84,
上海市奉贤区阳光幼儿园,121.4458301,30.90220758,1,70,教育,wgs84,
上海市奉贤区邬桥幼儿园,121.395762,30.96441122,1,70,教育,wgs84,
上海市奉贤区金池塘幼儿园,121.6082969,30.900232,1,70,教育,wgs84,
上海市奉贤区金铃子幼儿园,121.5017427,30.97420146,1,70,教育,wgs84,
上海市奉贤区新南幼儿园,121.4402562,30.99272603,1,70,教育,wgs84,
上海市奉贤区绿太阳幼儿园,121.4253744,30.83492629,1,70,教育,wgs84,
上海市奉贤区满天星幼儿园,121.7292165,30.89889855,1,70,教育,wgs84,
上海市奉贤区好时光幼儿园（民办）,121.4409062,30.99043952,1,70,教育,wgs84,
奉贤区解放路小学联盟体,121.4494157,30.91358858,1,70,教育,wgs84,
上海市奉贤区解放路小学,121.4494157,30.91358858,1,70,教育,wgs84,
上海市奉贤区头桥小学,121.6377643,30.95043095,1,70,教育,wgs84,
上海市奉贤区肖塘小学,121.434541,30.9616506,1,70,教育,wgs84,
上海市奉贤区解放路幼儿园,121.4777022,30.92311763,1,70,教育,wgs84,
上海市奉贤区聚贤幼儿园,121.4606751,30.94223483,1,70,教育,wgs84,
上海市奉贤区庄行幼儿园,121.3925746,30.91015427,1,70,教育,wgs84,
上海市奉贤区青苹果幼儿园,121.5163963,30.92460245,1,70,教育,wgs84,
上海市奉贤区金麦穗幼儿园,121.680743,30.92799793,1,70,教育,wgs84,
上海市奉贤区西渡幼儿园,121.4247505,30.99396403,1,70,教育,wgs84,
上海市奉贤区青村幼儿园,121.538263,30.87283053,1,70,教育,wgs84,
上海市奉贤区毓美幼儿园（民办）,121.4828619,30.93179564,1,70,教育,wgs84,
上海市奉贤区绿叶幼儿园,121.4649339,30.93174427,1,70,教育,wgs84,
上海市奉贤区树园幼儿园,121.4644401,30.92506628,1,70,教育,wgs84,
上海市奉贤区四团幼儿园,121.725832,30.94095584,1,70,教育,wgs84,
上海市奉贤区月亮船幼儿园,121.5129769,30.94231841,1,70,教育,wgs84,
上海市奉贤区奉城幼儿园,121.6533442,30.91177641,,25,乡镇,wgs84,
上海市奉贤区金豆豆幼儿园,121.6392976,30.95059612,1,70,教育,wgs84,
上海市奉贤区小森林幼儿园,121.5133295,30.96693536,1,70,教育,wgs84,
上海市奉贤区帕丁顿幼儿园（民办）,121.4516426,30.93998118,1,70,教育,wgs84,
上海市奉贤区震旦幼儿园（民办）,121.4565172,30.92050856,1,70,教育,wgs84,
上海市奉贤区南桥小学,121.4543262,30.9144486,1,70,教育,wgs84,
上海市奉贤区奉城一小,121.6448578,30.92012517,1,70,教育,wgs84,
上海市奉贤区思言小学,121.5154085,30.95482632,1,70,教育,wgs84,
上海市奉贤区南中路幼儿园,121.4443972,30.9177798,1,70,教育,wgs84,
上海市奉贤区育秀幼儿园,121.4687667,30.90859453,1,70,教育,wgs84,
上海市奉贤区金蔷薇幼儿园,121.6394007,30.90665808,1,70,教育,wgs84,
上海市奉贤区柘林幼儿园,121.4572872,30.86703365,1,70,教育,wgs84,
上海市奉贤区金阳幼儿园,121.5625666,30.98799184,1,70,教育,wgs84,
上海市奉贤区金汇幼儿园,121.4965211,30.98975689,1,70,教育,wgs84,
上海市奉贤区金棕榈幼儿园,121.5058119,30.82609298,1,70,教育,wgs84,
上海市奉贤区贝贝幼儿园（民办）,121.4422075,30.91052324,1,70,教育,wgs84,
上海市奉贤区九华田田幼儿园（民办）,121.4585823,30.92956642,1,70,教育,wgs84,
上海市奉贤区青青草幼儿园,121.4765736,30.91291113,1,70,教育,wgs84,
上海市奉贤区金海幼儿园,121.4945454,30.91873325,1,70,教育,wgs84,
上海市奉贤区奉浦幼儿园,121.4524295,30.93440829,1,70,教育,wgs84,
上海市奉贤区海湾幼儿园,121.5623372,30.86737314,1,70,教育,wgs84,
上海市奉贤区金贝幼儿园,121.4416768,30.91509938,1,70,教育,wgs84,
上海市奉贤区思齐幼儿园,121.5124291,30.95973789,1,70,教育,wgs84,
上海市奉贤区古华幼儿园,121.4578735,30.91677712,1,70,教育,wgs84,
上海市奉贤区天英幼儿园（民办）,121.4625867,30.91799704,1,70,教育,wgs84,
上海市奉贤区青溪中学,121.5138815,30.92697783,1,70,教育,wgs84,
上海市奉贤区明德外国语小学,121.5157768,30.92696989,1,70,教育,wgs84,
上海市奉贤区四团中学,121.7176188,30.94321316,1,70,教育,wgs84,
上海市奉贤区塘外中学,121.6152145,30.90449883,1,70,教育,wgs84,
上海市奉贤区尚同中学,121.5129765,30.95449028,1,70,教育,wgs84,
上海市奉贤区塘外小学,121.6146555,30.9022169,1,70,教育,wgs84,
上海市奉贤区实验小学,121.4366049,30.91285013,1,70,教育,wgs84,
上海市奉贤区育贤小学,121.4375034,30.92363612,1,70,教育,wgs84,
上海市奉贤区古华小学,121.4588034,30.91511173,1,70,教育,wgs84,
上海市奉贤区江海一小,121.4504586,30.90884079,1,70,教育,wgs84,
上海市奉贤区金水苑小学,121.4868912,30.95855226,1,70,教育,wgs84,
上海市奉贤区西渡小学,121.4185096,30.98494675,1,70,教育,wgs84,
上海市奉贤区青村小学,121.5778816,30.93036774,1,70,教育,wgs84,
上海市奉贤区实验幼儿园,121.4355673,30.91554009,1,70,教育,wgs84,
上海市奉贤区新贝艺术幼儿园,121.4387356,30.9102393,1,70,教育,wgs84,
上海市奉贤区星辰幼儿园,121.4572086,30.90358341,1,70,教育,wgs84,
上海市奉贤区小蜻蜓幼儿园,121.4334689,30.92231825,1,70,教育,wgs84,
上海市奉贤区肖塘幼儿园,121.4339495,30.96428194,1,70,教育,wgs84,
上海市奉贤区金水苑幼儿园,121.4904594,30.95672485,1,70,教育,wgs84,
上海市奉贤区桃花源幼儿园,121.5061094,30.90593029,1,70,教育,wgs84,
上海市奉贤区同汇幼儿园（民办）,121.4707806,30.92330348,1,70,教育,wgs84,
上海市奉贤区实验中学,121.4815422,30.92909636,1,70,教育,wgs84,
上海市奉贤区教师进修学院附属实验中学,121.4413622,30.91123203,1,70,教育,wgs84,
上海市奉贤区奉城二中,121.6355632,30.91559235,1,70,教育,wgs84,
上海市奉贤区洪庙中学,121.6796521,30.92790032,1,70,教育,wgs84,
上海市奉贤区邬桥学校,121.3942048,30.9626482,1,70,教育,wgs84,
上海市奉贤区金汇学校,121.495754,30.99017227,1,70,教育,wgs84,
奉贤区曙光中学联盟体,121.655452,30.9247933,1,70,教育,wgs84,
上海市奉贤区曙光中学,121.655452,30.9247933,1,70,教育,wgs84,
上海市奉贤区奉城高中,121.6409929,30.9114993,1,70,教育,wgs84,
上海市奉贤区景秀高中,121.7226231,30.95202131,1,70,教育,wgs84,
奉贤区阳光学校联盟体,121.4695046,30.91991617,,20,区县,wgs84,
上海市奉贤区阳光学校,121.4695046,30.91991617,,20,区县,wgs84,
上海市奉贤区胡桥学校,121.426569,30.83501399,1,70,教育,wgs84,
上海市奉贤区庄行学校,121.3948569,30.91002914,1,70,教育,wgs84,
上海市奉贤区泰日学校,121.5607048,30.98765992,1,70,教育,wgs84,
上海市奉贤区育秀实验学校,121.4568216,30.9078046,1,70,教育,wgs84,
上海市奉贤区江山小学,121.4572975,30.90468565,1,70,教育,wgs84,
上海市奉贤区钱桥学校,121.5389159,30.87442065,1,70,教育,wgs84,
上海市奉贤区光明学校,121.5031906,30.90789166,1,70,教育,wgs84,
上海市奉贤区西渡学校,121.4375982,30.99159098,1,70,教育,wgs84,
上海市奉贤区肇文学校,121.6499077,30.91392435,1,70,教育,wgs84,
上海市奉贤区少体校,121.4695046,30.91991617,,20,区县,wgs84,
奉贤区致远高中联盟体,121.454669,30.91001561,1,70,教育,wgs84,
上海市奉贤区致远高中,121.454669,30.91001561,1,70,教育,wgs84,
上师大四附中,121.4142312,31.1636352,,70,教育,wgs84,
上海市奉贤区民办帕丁顿双语学校,121.4517656,30.93743456,1,70,教育,wgs84,
上海市奉贤区奉贤中学,121.4926566,30.92443026,1,70,教育,wgs84,
上海市奉贤区曙光中学,121.655452,30.9247933,1,70,教育,wgs84,
上海市奉贤区致远高中,121.454669,30.91001561,1,70,教育,wgs84,
上海外国语大学嘉定外国语学校,121.697474,31.19565828,,70,教育,wgs84,
上海市嘉定区震川中学,121.1506186,31.30476509,1,70,教育,wgs84,
上海市嘉定区方泰中学,121.2036484,31.31971099,1,70,教育,wgs84,
上海市嘉定区方泰小学,121.2061603,31.31906769,1,70,教育,wgs84,
上海市嘉定区安亭小学,121.149222,31.30389017,1,70,教育,wgs84,
同济大学附属实验中学,121.2097665,31.28758492,,70,教育,wgs84,
同济大学附属实验小学,121.2097665,31.28758492,,70,教育,wgs84,
上海同济黄渡小学,121.2343845,31.27511503,1,70,教育,wgs84,
上海市嘉定区黄渡中学,121.2048093,31.27652388,1,70,教育,wgs84,
上海市嘉定区紫荆小学,121.163043,31.29415878,1,70,教育,wgs84,
上海华东师范大学附属双语学校,121.169986,31.26427307,1,70,教育,wgs84,
上海市嘉定区迎园中学,121.2770125,31.39545391,1,70,教育,wgs84,
上海市嘉定区练川实验学校,121.2623127,31.38044698,1,70,教育,wgs84,
上海市嘉定区迎园小学,121.2598796,31.38722341,,50,NoClass,wgs84,
上海市嘉定区新成路小学,121.2695866,31.38596157,1,70,教育,wgs84,
上海市曹杨二中附属江桥实验中学,121.3171825,31.25791989,1,70,教育,wgs84,
上海市嘉定区杨柳初级中学,121.2889092,31.27327734,1,70,教育,wgs84,
上海市嘉定区金鹤中学,121.3123039,31.24923074,1,70,教育,wgs84,
上海市嘉定区江桥小学,121.3329342,31.25890647,1,70,教育,wgs84,
上海市嘉定区封浜小学,121.2941775,31.27143195,1,70,教育,wgs84,
上海市嘉定区金鹤小学,121.3079544,31.2411102,1,70,教育,wgs84,
上海市嘉定区华江小学,121.3351916,31.26639919,1,70,教育,wgs84,
上海市嘉定区嘉涛路小学,121.324083,31.27077808,1,70,教育,wgs84,
上海市嘉定区疁城实验学校,121.2392653,31.38117321,1,70,教育,wgs84,
上海市嘉定区启良中学,121.2486927,31.39054477,1,70,教育,wgs84,
上海市嘉定区普通小学,121.2508469,31.38680708,1,70,教育,wgs84,
上海市嘉定区城中路小学,121.2374854,31.38743069,1,70,教育,wgs84,
上海市嘉定区第二中学,121.3064376,31.29753999,1,70,教育,wgs84,
上海市嘉定区南翔中学,121.3024374,31.30153363,1,70,教育,wgs84,
上海嘉定区怀少学校,121.3069441,31.30059665,1,70,教育,wgs84,
上海市嘉定区苏民学校,121.3015311,31.29500807,1,70,教育,wgs84,
上海市嘉定区留云中学,121.3168755,31.31579902,1,70,教育,wgs84,
上海市嘉定区南翔小学,121.3044471,31.30117496,1,70,教育,wgs84,
上海市嘉定区古猗小学,121.3201957,31.30301705,1,70,教育,wgs84,
上海市嘉定区南苑中学,121.237897,31.36453329,1,70,教育,wgs84,
上海市嘉定区朱桥学校,121.1881117,31.41028334,1,70,教育,wgs84,
上海市嘉定区娄塘学校,121.2096724,31.43422763,1,70,教育,wgs84,
上海市嘉定区叶城小学,121.2378943,31.36457718,1,70,教育,wgs84,
上海市嘉定区南苑小学,121.2428805,31.37008525,1,70,教育,wgs84,
上海交通大学附属中学嘉定分校,121.4669342,31.21445172,,70,教育,wgs84,
上海市嘉定区马陆育才联合中学,121.2751026,31.32621551,1,70,教育,wgs84,
上海民办华二初级中学,121.2472369,31.34330806,1,70,教育,wgs84,
上海市嘉定区德富路中学,121.2476462,31.35645867,1,70,教育,wgs84,
上海市嘉定区戬浜学校,121.2884043,31.38193449,1,70,教育,wgs84,
上海市嘉定区德富路小学,121.2468331,31.35768241,1,70,教育,wgs84,
上海市嘉定区马陆小学,121.2761692,31.32554578,1,70,教育,wgs84,
上海市嘉定区实验小学,121.2482857,31.40067748,1,70,教育,wgs84,
上海市嘉定区清水路小学,121.228653,31.38347808,1,70,教育,wgs84,
上海市嘉定区徐行小学,121.2664854,31.41447511,1,70,教育,wgs84,
上海市嘉定区外冈小学,121.1532411,31.36605664,1,70,教育,wgs84,
上海市嘉定区第一中学,121.2615543,31.3764608,,20,区县,wgs84,
中科院上海实验学校（筹）,121.2278572,31.38161957,1,70,教育,wgs84,
上海市民办嘉一联合中学,121.2467578,31.40534501,1,70,教育,wgs84,
上海市民办桃李园实验学校,121.23155,31.40015962,1,70,教育,wgs84,
上海市嘉定区徐行中学,121.2649702,31.41514447,1,70,教育,wgs84,
上海市嘉定区第一中学附属小学,121.243203,31.39327609,1,70,教育,wgs84,
上海市金山区第二实验小学,121.3359742,30.73207094,1,70,教育,wgs84,
上海市金山区朱行小学,121.3300325,30.85029591,1,70,教育,wgs84,
上海市金山区海棠小学,121.3487896,30.74209233,1,70,教育,wgs84,
上海市金山区钱圩小学,121.2431184,30.77787101,1,70,教育,wgs84,
上海市金山区金山小学,121.3378297,30.75486259,1,70,教育,wgs84,
上海市金山区漕泾小学,121.3917708,30.79946453,1,70,教育,wgs84,
上海市金山中学,121.3371484,30.75661814,1,70,教育,wgs84,
上海市西林中学,121.155174,30.89401298,1,70,教育,wgs84,
上海市蒙山中学,110.5165842,24.20628353,1,70,教育,wgs84,
上海市朱行中学,121.3284418,30.84673688,1,70,教育,wgs84,
上海市金山区枫泾小学,121.0139121,30.89325298,1,70,教育,wgs84,
上海市金山区兴塔小学,121.0740224,30.87462707,1,70,教育,wgs84,
上海市罗星中学,121.1650504,30.90057493,1,70,教育,wgs84,
上海市西林中学,121.155174,30.89401298,1,70,教育,wgs84,
上海市新农学校（初中部）,121.2023524,30.89753045,1,70,教育,wgs84,
上海市金山区第一实验小学,121.1711769,30.89057011,1,70,教育,wgs84,
上海市金山区朱泾第二小学,121.1577311,30.89971274,1,70,教育,wgs84,
上海市金山区朱泾小学,121.1530044,30.89047809,1,70,教育,wgs84,
上海市新农学校（小学部）,121.2023524,30.89753045,1,70,教育,wgs84,
华坪小学“新基础教育”生态区,101.2644526,26.63255511,,20,区县,wgs84,
上海市闵行区华坪小学,121.4186307,31.00324462,1,70,教育,wgs84,
上海市闵行区鹤北小学,121.4111494,31.01251715,1,70,教育,wgs84,
上海市闵行区碧江路小学,121.3953982,31.01656436,,50,NoClass,wgs84,
上海市闵行区昆阳路小学,121.3656246,31.00148286,1,70,教育,wgs84,
上海市闵行区丽江小学,121.3995284,31.00682411,1,70,教育,wgs84,
上海交通大学附属实验小学,121.4669342,31.21445172,,70,教育,wgs84,
华东师范大学附属紫竹小学,121.3955618,31.21253395,,70,教育,wgs84,
闵行区北桥中心小学,121.4149526,31.03860574,1,70,教育,wgs84,
上海市闵行区浦江第二小学,121.5269698,31.0686985,1,70,教育,wgs84,
上海闵行区浦江文馨学校,121.4947594,31.03189033,1,70,教育,wgs84,
江川路小学,121.4150686,31.00819592,1,70,教育,wgs84,
梅陇小学,121.4057235,31.13324783,1,70,教育,wgs84,
闵行区实验小学（四个校区）,121.4082261,31.10944549,1,70,教育,wgs84,
上海市闵行区申莘小学,121.3776243,31.09125159,1,70,教育,wgs84,
上海市闵行区鑫都小学,121.3925447,31.06082316,1,70,教育,wgs84,
上海市闵行区莘松小学,121.3595211,31.11812941,1,70,教育,wgs84,
上海市闵行区马桥实验小学,121.3909831,31.03043244,1,70,教育,wgs84,
闵行区田园外国语小学,121.3905464,31.09772876,1,70,教育,wgs84,
上海市闵行区田园外国语小学（银都校区）,121.3882605,31.09296844,1,70,生活服务,wgs84,
上海市闵行区田园外国语小学（金都校区）,121.3939115,31.09514843,1,70,地产小区,wgs84,
闵行四中“新基础教育”生态区,121.399624,31.01535241,1,70,教育,wgs84,
上海市马桥强恕学校,121.3613857,31.03248073,1,70,教育,wgs84,
上海市闵行区曹行中学,121.4288543,31.09333879,1,70,教育,wgs84,
上海市闵行区友爱实验中学,121.4491042,31.04054536,1,70,教育,wgs84,
上海市莘城学校,121.3848235,31.10180887,1,70,教育,wgs84,
上海市罗阳中学,121.4082302,31.12342267,1,70,教育,wgs84,
上海市闵行区颛桥中学,121.3986951,31.07237752,1,70,教育,wgs84,
上海市闵行区浦江第二中学,121.5296311,31.05970204,,50,NoClass,wgs84,
上海市吴泾中学,121.4616329,31.04780408,1,70,教育,wgs84,
上海市闵行区君莲学校,121.4054764,31.08509764,1,70,教育,wgs84,
上海市闵行中学,121.4212404,31.0089427,,50,NoClass,wgs84,
上海市民办文绮中学,121.4195201,31.00850212,1,70,教育,wgs84,
上海市闵行区浦江第二中学,121.5296311,31.05970204,,50,NoClass,wgs84,
上海市闵行区龙茗中学,121.3775398,31.1387312,1,70,教育,wgs84,
上海市闵行区颛桥中学,121.3986951,31.07237752,1,70,教育,wgs84,
上海市吴泾中学,121.4616329,31.04780408,1,70,教育,wgs84,
上海市闵行区鹤北初级中学,121.4037702,31.01038904,1,70,教育,wgs84,
上海市闵行第二中学,121.4118791,31.1029518,1,70,教育,wgs84,
上海市闵行第三中学,121.414747,31.00237458,1,70,教育,wgs84,
明强小学,121.3564536,31.15557659,,70,教育,wgs84,
上海七宝明强小学（东校区）,121.3564536,31.15557659,1,70,教育,wgs84,
上海七宝明强小学（西校区）,121.3468385,31.14378829,,50,NoClass,wgs84,
上海市七宝中学,121.3634909,31.1515586,,50,NoClass,wgs84,
上海市闵行区七宝第二中学,121.3456854,31.16779194,1,70,教育,wgs84,
上海市闵行区七宝第三中学,121.3581595,31.15647926,1,70,教育,wgs84,
上海市七宝实验中学,121.3776633,31.16493754,1,70,教育,wgs84,
上海市文来中学(初中),121.3608934,31.15158654,1,70,教育,wgs84,
上海市文来中学(高中),121.3608934,31.15158654,1,70,教育,wgs84,
上海市闵行区文来实验学校,121.3035713,31.20582946,1,70,教育,wgs84,
上海市航华中学,121.3481813,31.17495924,1,70,教育,wgs84,
上海市航华第二中学,121.3485119,31.17477412,,50,商圈,wgs84,
上海市田园高级中学,121.4049066,31.09577742,1,70,教育,wgs84,
上海市金汇高级中学,121.4970345,30.99133377,,25,乡镇,wgs84,
上海市七宝外国语小学,121.365748,31.13941713,1,70,教育,wgs84,
上海七宝德怀特高级中学,121.370438,31.16224042,1,70,教育,wgs84,
马桥文来外国语小学,121.3786529,31.02725355,1,70,教育,wgs84,
汽轮小学“新基础教育”生态区,121.4085214,31.00758861,,70,教育,wgs84,
闵行区汽轮小学,121.4085214,31.00758861,1,70,教育,wgs84,
上海市闵行区中心小学,121.3773688,31.11510315,,20,区县,wgs84,
闵行区花园学校,121.3613487,31.11258137,1,70,教育,wgs84,
上海市闵行区七宝明强第二小学,121.3479659,31.17052971,1,70,教育,wgs84,
上海市闵行区申莘小学,121.3776243,31.09125159,1,70,教育,wgs84,
上海市闵行区曹行小学,121.4092802,31.09344278,1,70,教育,wgs84,
上海市吴泾小学,121.4670034,31.04416336,1,70,教育,wgs84,
上海市闵行区吴泾第三小学,121.4838097,31.10581975,1,70,教育,wgs84,
上海市闵行区景东小学,121.4545805,31.04586982,1,70,教育,wgs84,
上海闵行区民办育苗小学,121.4386492,31.10842025,1,70,教育,wgs84,
上海闵行区民办双江小学,121.4045847,31.00456743,1,70,教育,wgs84,
蔷薇小学,121.4285854,31.11665438,,70,教育,wgs84,
蔷薇小学（春申校区）,116.4611672,39.98793735,,75,购物,wgs84,
莘松中学,121.3724232,31.12406212,,70,教育,wgs84,
莘松中学（春申校区）,115.0405472,32.14699677,,25,乡镇,wgs84,
莘庄镇小学,121.3721722,31.10595968,1,70,教育,wgs84,
紫竹教育园区,116.3084505,39.93846024,,25,乡镇,wgs84,
华东师范大学第二附属中学（紫竹学校）,121.3955618,31.21253395,,70,教育,wgs84,
华东师范大学附属紫竹小学,121.3955618,31.21253395,,70,教育,wgs84,
上海市北蔡中学,121.5530571,31.1757161,1,70,教育,wgs84,
上海市新云台中学,121.5445017,31.1837643,1,70,教育,wgs84,
上海市绿川学校,121.5459276,31.17070235,1,70,教育,wgs84,
上海市浦东新区御桥小学,121.5629231,31.17562626,1,70,教育,wgs84,
上海市浦东新区莲溪小学,121.5536503,31.18056054,1,70,教育,wgs84,
上海市浦东新区育童小学,121.5354471,31.17314448,1,70,教育,wgs84,
上海市浦东新区北蔡镇中心小学,121.549192,31.18561972,1,70,教育,wgs84,
上海市浦东新区龚路中心小学,121.6804067,31.26926778,1,70,教育,wgs84,
上海市浦东新区顾路镇中心小学,121.6627129,31.29723961,1,70,教育,wgs84,
上海市浦东新区曹路打一小学,121.6666562,31.29184849,1,70,教育,wgs84,
上海浦东新区民办育才小学,121.7000156,31.25583888,1,70,教育,wgs84,
上海市第二工业大学附属龚路中学,121.6744349,31.2671246,1,70,教育,wgs84,
上海市顾路中学,121.6550394,31.29021924,1,70,教育,wgs84,
上海市浦东模范中学东校,121.6660842,31.29283041,1,70,教育,wgs84,
上海市川沙中学南校,121.6841247,31.18507973,1,70,教育,wgs84,
上海市侨光中学,121.7052399,31.18212186,1,70,教育,wgs84,
上海市五三中学,121.702278,31.20049733,1,70,教育,wgs84,
上海市川沙中学华夏西校,121.6860772,31.19599364,1,70,教育,wgs84,
上海市浦东新区观澜小学,121.6926237,31.17634798,1,70,教育,wgs84,
上海市浦东新区实验小学,121.6964274,31.18856754,1,70,教育,wgs84,
上海市浦东新区园西小学,121.6683444,31.19511507,1,70,教育,wgs84,
上海市浦东新区新城小学,121.6913853,31.19850748,1,70,教育,wgs84,
上海市浦东新区教育学院附属学校,121.6863155,31.19952748,1,70,教育,wgs84,
上海市川沙中学北校（浦东新区第一少年儿童体育学校）,121.6965707,31.20518122,1,70,教育,wgs84,
上海市六团中学,121.717874,31.15619449,1,70,教育,wgs84,
上海市浦东新区六团中心小学,121.7243287,31.15281547,1,70,教育,wgs84,
上海市黄楼中学,121.6654135,31.16795485,1,70,教育,wgs84,
上海市浦东新区黄楼镇中心小学,121.539716,31.22324453,,20,区县,wgs84,
上海市六灶中学,121.6945653,31.1156275,1,70,教育,wgs84,
上海浦东新区六灶小学,121.6888714,31.11830245,1,70,教育,wgs84,
上海市育华(集团)学校,121.67678,31.19267874,1,70,教育,wgs84,
上海市川沙中学,121.6964857,31.1965802,1,70,教育,wgs84,
上海市川沙中学南校,121.6841247,31.18507973,1,70,教育,wgs84,
上海市川沙中学北校,121.6965707,31.20518122,1,70,教育,wgs84,
上海市川沙中学华夏西校,121.6860772,31.19599364,1,70,教育,wgs84,
上海市侨光中学,121.7052399,31.18212186,1,70,教育,wgs84,
上海市五三中学,121.702278,31.20049733,1,70,教育,wgs84,
上海市孙桥中学,121.6283003,31.17526774,1,70,教育,wgs84,
上海市高东中学,121.615263,31.33135178,1,70,教育,wgs84,
上海市杨园中学,121.6269128,31.31021458,1,70,教育,wgs84,
上海市浦东新区杨园中心小学,121.6274083,31.32022549,1,70,教育,wgs84,
上海市浦东新区高东镇中心小学,121.6184816,31.32849932,,25,乡镇,wgs84,
上海市浦东新区华高小学（东靖路校区）,121.6136566,31.29500219,1,70,教育,wgs84,
上海浦东新区民办精忠小学,121.6274412,31.30927252,1,70,教育,wgs84,
上海市航头学校,121.5979688,31.07982085,1,70,教育,wgs84,
上海市下沙学校,121.5844229,31.05100573,1,70,教育,wgs84,
上海市进才中学南校,121.5909791,31.07122468,1,70,教育,wgs84,
上海市浦东新区航城实验小学,121.5855174,31.08120649,1,70,教育,wgs84,
上海浦东新区民办航头小学,121.5910464,31.05205928,1,70,教育,wgs84,
上海市浦东新区周浦第三小学分校,121.5905434,31.07280733,1,70,教育,wgs84,
上海市合庆中学,121.7143462,31.24192563,1,70,教育,wgs84,
上海市浦东新区合庆镇中心小学,121.7113786,31.23839327,1,70,教育,wgs84,
上海市蔡路中学,121.7247454,31.21647056,1,70,教育,wgs84,
上海市浦东新区蔡路逸夫蔡路小学,121.7255325,31.21431516,1,70,教育,wgs84,
上海市浦东新区庆华小学,121.722131,31.23804367,1,70,教育,wgs84,
上海市沪新中学,121.5763139,31.27506058,1,70,教育,wgs84,
上海市长岛中学,121.5778526,31.26379222,1,70,教育,wgs84,
上海市金川中学,121.5791346,31.2787884,1,70,教育,wgs84,
上海市陆行中学北校,121.5744299,31.2825076,1,70,教育,wgs84,
上海市东沟中学,121.5776797,31.2851994,1,70,教育,wgs84,
上海市浦东新区莱阳小学,121.5770421,31.27988808,1,70,教育,wgs84,
上海市浦东新区东波小学,121.5778746,31.2875973,1,70,教育,wgs84,
上海市浦东新区沪新小学,121.5805033,31.2700803,1,70,教育,wgs84,
上海市浦东新区竹园小学沪东校区,121.5741132,31.26729688,1,70,教育,wgs84,
上海市浦东新区海桐小学,121.5483711,31.20778848,1,70,教育,wgs84,
上海民办进才外国语学校,121.5373864,31.20526784,1,70,教育,wgs84,
上海市建平香梅中学,121.5330475,31.21050998,1,70,教育,wgs84,
上海市华林中学,121.5585921,31.19553308,1,70,教育,wgs84,
上海市浦东新区华林小学,121.5588091,31.19422276,1,70,教育,wgs84,
上海市浦东新区由由小学,121.5253492,31.19223281,1,70,教育,wgs84,
上海市浦东新区花木中心小学,121.539716,31.22324453,,20,区县,wgs84,
上海市浦东新区华林小学,121.5588091,31.19422276,1,70,教育,wgs84,
上海市浦明师范学校附属小学（花木校区）,121.5269739,31.20400417,1,70,教育,wgs84,
上海市浦东新区竹园小学（花木校区）,121.5261301,31.23318459,1,70,教育,wgs84,
上海市浦东新区锦绣小学,121.5337796,31.19738237,1,70,教育,wgs84,
上海市南汇第二中学,121.7711977,31.06198177,1,70,教育,wgs84,
上海市南汇第一中学,121.7544326,31.04660736,1,70,教育,wgs84,
上海市南汇第三中学,121.7548282,31.05437157,1,70,教育,wgs84,
上海市南汇第四中学,121.7573996,31.04652791,1,70,教育,wgs84,
上海市南汇第五中学,121.736116,31.06938895,1,70,教育,wgs84,
上海市浦东教育发展研究院附属中学,121.7568756,31.08186817,1,70,教育,wgs84,
上海市南汇实验学校,121.7434954,31.04933738,1,70,教育,wgs84,
上海市黄路学校,121.7759442,31.02552214,,50,NoClass,wgs84,
上海市浦东新区东城学校,121.6928273,31.18906989,,25,乡镇,wgs84,
上海市浦东新区惠南小学,121.7385167,31.06997069,1,70,教育,wgs84,
上海市浦东新区逸夫小学,121.739242,31.04688896,1,70,教育,wgs84,
上海市浦东新区荡湾小学,121.7624611,31.04565675,1,70,教育,wgs84,
上海市浦东新区南汇外国语小学,121.7704186,31.06352284,1,70,教育,wgs84,
上海市浦东新区惠南第二小学,121.7626826,31.04905758,1,70,教育,wgs84,
上海市浦东新区致立学校,121.7626412,31.04813033,1,70,教育,wgs84,
上海师范大学附属第二外国语学校,121.7759486,31.05491696,,70,教育,wgs84,
上海市浦东新区建平实验小学,121.5888484,31.25434351,1,70,教育,wgs84,
上海市浦东新区万德小学,121.539716,31.22324453,,20,区县,wgs84,
上海市浦东新区罗山小学,121.5579174,31.25039638,1,70,教育,wgs84,
上海市浦东新区香山小学,121.5668971,31.24136014,1,70,教育,wgs84,
上海市浦东新区进涛小学,121.5643338,31.26979145,1,70,教育,wgs84,
上海市浦东新区金陆小学,121.5749221,31.25410691,1,70,教育,wgs84,
上海市浦东新区金英小学,121.5751061,31.24838545,1,70,教育,wgs84,
上海市罗山中学,121.5541425,31.24957384,1,70,教育,wgs84,
上海市建平实验中学,121.5664015,31.26167752,1,70,教育,wgs84,
上海市金杨中学,121.5722844,31.25055294,1,70,教育,wgs84,
上海市陆行中学南校,121.5809827,31.25092247,1,70,教育,wgs84,
上海市致远中学,121.5713202,31.24526761,1,70,教育,wgs84,
上海市香山中学,121.562734,31.24168619,1,70,教育,wgs84,
上海市浦东新区明珠小学(A区、B区、C区),121.5139417,31.2279966,1,70,教育,wgs84,
上海市浦东新区明珠森兰小学,121.5873698,31.29514936,1,70,教育,wgs84,
上海市浦东新区明珠临港小学,121.9101871,30.91793175,1,70,教育,wgs84,
上海市浦东新区高东镇中心小学,121.6184816,31.32849932,,25,乡镇,wgs84,
上海市浦东新区祝桥小学,121.7520755,31.11349857,1,70,教育,wgs84,
上海市浦东新区康桥实验小学,121.5503985,31.12336996,1,70,教育,wgs84,
上海市浦东新区康桥小学,121.5681699,31.12531785,1,70,教育,wgs84,
上海市南汇第一中学,121.7544326,31.04660736,1,70,教育,wgs84,
上海市南汇第三中学,121.7548282,31.05437157,1,70,教育,wgs84,
上海市南汇第四中学,121.7573996,31.04652791,1,70,教育,wgs84,
上海市黄路学校,121.7759442,31.02552214,,50,NoClass,wgs84,
上海市坦直中学,121.6402096,31.07442924,1,70,教育,wgs84,
上海市大团中学,121.7384721,30.96917716,1,70,教育,wgs84,
上海市书院中学,121.8605937,30.93001154,1,70,教育,wgs84,
上海市新港中学,121.8656736,30.98605149,1,70,教育,wgs84,
上海市宣桥学校,121.6981977,31.01800976,1,70,教育,wgs84,
上海市三灶学校,121.7089054,31.07342378,,50,NoClass,wgs84,
上海市临港第一中学,121.9155031,30.88620703,1,70,教育,wgs84,
上海市浦东教育发展研究院附属中学,121.7568756,31.08186817,1,70,教育,wgs84,
上海市浦东模范中学,121.5880983,31.26681015,1,70,教育,wgs84,
上海市浦兴中学,121.5948683,31.2664515,1,70,教育,wgs84,
上海市高桥—东陆学校,121.6180826,30.92176108,,30,道路,wgs84,
上海市浦东新区东荷小学,121.5896572,31.27382712,1,70,教育,wgs84,
上海市浦东新区凌河小学,121.5903296,31.28048755,1,70,教育,wgs84,
上海市浦东新区金新小学,121.5969221,31.26799608,1,70,教育,wgs84,
上海市浦东新区金茂小学,121.5841916,31.26103357,1,70,教育,wgs84,
上海市浦东新区上南实验小学,121.4901283,31.1759089,1,70,教育,wgs84,
上海市浦东新区德州一村小学,121.4801021,31.17133263,1,70,教育,wgs84,
上海市浦东新区德州二村小学,121.4855968,31.17016571,1,70,教育,wgs84,
上海市洪山中学,114.3482001,30.5338579,1,70,教育,wgs84,
上海市历城中学,121.4859773,31.17492254,1,70,教育,wgs84,
上海市民办东方阶梯双语学校,121.480358,31.17435041,1,70,教育,wgs84,
上海民办常青中学,121.4033212,31.16297755,1,70,政府机构,wgs84,
上海市王港中学,121.6703283,31.24290653,1,70,教育,wgs84,
上海市唐镇中学,121.6605374,31.20612058,,50,NoClass,wgs84,
上海市浦东新区唐镇小学,121.6506712,31.20907776,1,70,教育,wgs84,
上海市浦东新区王港中心小学,121.6702823,31.23601824,1,70,教育,wgs84,
上海市浦东新区福山唐城外国语小学,121.648609,31.22161486,1,70,教育,wgs84,
上海市浦东新区建平中学南校,121.5163667,31.21506006,1,70,教育,wgs84,
上海市浦东新区东方小学,121.5075978,31.12631107,1,70,教育,wgs84,
上海市浦东新区浦东南路小学,121.5101986,31.20964906,1,70,教育,wgs84,
上海市浦东新区塘桥第一小学,121.5183733,31.21176605,1,70,教育,wgs84,
上海市万祥学校,121.8187879,30.96932936,1,70,教育,wgs84,
上海市大团中学,121.7384721,30.96917716,1,70,教育,wgs84,
上海市浦东新区大团小学,121.7367096,30.9751296,1,70,教育,wgs84,
上海市三墩学校,121.7497815,30.99454698,1,70,教育,wgs84,
上海市浦东新区向阳小学,121.7374985,30.9713789,1,70,教育,wgs84,
华东师范大学附属东昌中学南校,121.511023,31.2368156,,70,教育,wgs84,
上海市洋泾中学东校,121.5220012,31.22597809,,50,NoClass,wgs84,
上海民办新竹园中学,121.5565875,31.2561218,,70,教育,wgs84,
上海民办洋泾外国语学校,121.5177117,31.22043843,1,70,教育,wgs84,
上海市浦东新区竹园小学,121.5261301,31.23318459,1,70,教育,wgs84,
上海市浦明师范学校附属小学,121.5269739,31.20400417,1,70,教育,wgs84,
上海市浦东新区明珠小学,121.5205752,31.22582852,1,70,教育,wgs84,
上海市石笋中学,121.6400579,31.01991879,1,70,教育,wgs84,
上海市坦直中学,121.6402096,31.07442924,1,70,教育,wgs84,
上海市浦东新区新场小学,121.6444793,31.02755111,1,70,教育,wgs84,
上海市浦东新区石笋小学,121.6410501,31.02465593,1,70,教育,wgs84,
上海市浦东新区坦直小学,121.6450288,31.07642123,1,70,教育,wgs84,
华东师范大学张江实验中学,121.6070285,31.19982424,,25,乡镇,wgs84,
上海市孙桥中学,121.6283003,31.17526774,1,70,教育,wgs84,
华东师范大学附属东昌中学南校（张江校区）,121.3955618,31.21253395,,70,教育,wgs84,
上海外国语大学附属浦东外国语学校,121.583391,31.19615298,,70,教育,wgs84,
上海民办张江集团学校,121.5899458,31.20416818,1,70,教育,wgs84,
上海市竹园中学（张江学区）,121.6240178,31.20084366,1,70,教育,wgs84,
上海市民办中芯学校,121.6153845,31.22199179,1,70,教育,wgs84,
上海市浦东新区孙桥镇中心小学,121.539716,31.22324453,,20,区县,wgs84,
上海市浦东新区张江镇中心小学,121.6177124,31.20785531,1,70,教育,wgs84,
上海市浦东新区张江高科实验小学,121.5897307,31.20326228,1,70,教育,wgs84,
上海市浦东新区第二中心小学（张江校区）,121.6309937,31.20196322,1,70,教育,wgs84,
上海市澧溪中学,121.5741378,31.11212611,1,70,教育,wgs84,
上海市傅雷中学,121.5859142,31.12413949,1,70,教育,wgs84,
上海市周浦育才学校,121.6551625,31.11215562,1,70,教育,wgs84,
上海市浦东新区周浦小学,121.5782472,31.12018104,1,70,教育,wgs84,
上海市浦东新区周浦第二小学,121.5722775,31.12515524,1,70,教育,wgs84,
上海市浦东新区周浦第三小学,121.5805494,31.11250103,1,70,教育,wgs84,
上海市浦东新区澧溪小学,121.5749959,31.11110104,1,70,教育,wgs84,
上海市周浦实验学校,121.5925055,31.09412414,1,70,教育,wgs84,
上海市浦东新区傅雷小学,121.5876675,31.12388063,1,70,教育,wgs84,
上海市实验学校附属光明学校,121.752751,31.10406028,1,70,教育,wgs84,
上海市施湾中学,121.7422266,31.14618106,1,70,教育,wgs84,
上海市江镇中学,121.7496291,31.17698286,1,70,教育,wgs84,
上海市进才中学东校,121.7495143,31.12686789,1,70,教育,wgs84,
上海市东海学校,121.8082968,31.09280899,1,70,教育,wgs84,
上海市浦东新区东港小学,121.745741,31.14604583,1,70,教育,wgs84,
上海市浦东新区江镇中心小学,121.7393073,31.17610575,1,70,教育,wgs84,
上海市浦东新区施湾镇中心小学,121.7489594,31.15308246,1,70,教育,wgs84,
上海市浦东新区晨阳小学,121.7436932,31.18062201,1,70,教育,wgs84,
上海市浦东新区祝桥小学,121.7520755,31.11349857,1,70,教育,wgs84,
上海市浦东新区盐仓小学,121.7614889,31.08378283,1,70,教育,wgs84,
上海市建平中学,121.5518085,31.2465329,1,70,教育,wgs84,
上海市建平中学西校,121.5523916,31.2086869,1,70,教育,wgs84,
上海市浦东新区建平中学南校,121.5163667,31.21506006,1,70,教育,wgs84,
上海市建平实验中学,121.5664015,31.26167752,1,70,教育,wgs84,
上海市建平世纪中学,121.4046398,31.2149363,1,70,教育,wgs84,
上海市浦东新区建平实验小学,121.5888484,31.25434351,1,70,教育,wgs84,
上海市建平香梅中学,121.5330475,31.21050998,1,70,教育,wgs84,
上海市浦东中学,121.5109828,31.18955753,1,70,教育,wgs84,
上海市民办金苹果学校,121.6154034,31.28400547,1,70,教育,wgs84,
上海民办建平远翔学校,121.589954,31.27269198,1,70,教育,wgs84,
上海市第六师范附属小学,121.5588772,31.24239405,1,70,教育,wgs84,
上海市浦东新区特殊教育学校,121.5604712,31.24394974,1,70,教育,wgs84,
上海市进才中学,121.5431662,31.23156009,,50,NoClass,wgs84,
上海海事大学附属北蔡高级中学,121.5645891,31.2651836,,70,教育,wgs84,
上海市新场中学,121.6453194,31.0241581,1,70,教育,wgs84,
上海市高东中学,121.615263,31.33135178,1,70,教育,wgs84,
上海市进才中学北校,121.5418209,31.236352,1,70,教育,wgs84,
上海市进才实验中学,121.5525414,31.22771747,1,70,教育,wgs84,
上海市浦东新区进才中学南校,121.5909791,31.07122468,1,70,教育,wgs84,
上海市高桥－东陆学校,121.6180826,30.92176108,,30,道路,wgs84,
上海市罗山中学,121.5541425,31.24957384,1,70,教育,wgs84,
上海市北蔡中学,121.5530571,31.1757161,1,70,教育,wgs84,
上海市浦东新区进才实验小学,121.5253492,31.19223281,1,70,教育,wgs84,
上海市浦东新区海桐小学,121.5483711,31.20778848,1,70,教育,wgs84,
上海市浦东新区第二中心小学,121.6309937,31.20196322,1,70,教育,wgs84,
上海民办进才外国语学校,121.5373864,31.20526784,1,70,教育,wgs84,
上海市浦东新区进才中学东校,121.7495143,31.12686789,1,70,教育,wgs84,
上海市洋泾中学,121.5228516,31.22158889,1,70,教育,wgs84,
上海市洋泾-菊园实验学校,121.5075019,31.22982579,1,70,教育,wgs84,
上海市洋泾中学东校,121.5220012,31.22597809,,50,NoClass,wgs84,
上海市洋泾中学南校,121.4949956,31.12586246,1,70,教育,wgs84,
上海市浦东新区洋泾实验小学,121.5457942,31.24502746,1,70,教育,wgs84,
上海民办洋泾外国语学校,121.5177117,31.22043843,1,70,教育,wgs84,
上海交通大学附属中学浦东实验高中,121.4845742,31.32114369,,70,教育,wgs84,
上海市浦明师范学校附属小学,121.5269739,31.20400417,1,70,教育,wgs84,
曹杨二中教育园区,121.4011018,31.2450781,,50,商圈,wgs84,
上海市曹杨第二中学,121.3958194,31.24215111,1,70,教育,wgs84,
上海市曹杨第二中学附属学校,121.4011747,31.23768753,1,70,教育,wgs84,
上海兰田中学,121.4157912,31.24648839,1,70,教育,wgs84,
上海市梅陇中学,121.4050566,31.13417713,1,70,教育,wgs84,
上海市兴陇中学,121.4057009,31.23920934,1,70,教育,wgs84,
上海市普陀区朝春中心小学,121.4022471,31.24318765,1,70,教育,wgs84,
上海市沙田学校,121.4075662,31.23997445,1,70,教育,wgs84,
上海市普陀区曹杨新村第六小学,121.4033629,31.23779068,1,70,教育,wgs84,
曹杨教育联合体,121.4011018,31.2450781,,50,商圈,wgs84,
上海市曹杨第二中学,121.3958194,31.24215111,1,70,教育,wgs84,
上海市曹杨第二中学附属学校,121.4011747,31.23768753,1,70,教育,wgs84,
上海市兴陇中学,121.4057009,31.23920934,1,70,教育,wgs84,
上海市沙田学校,121.4075662,31.23997445,1,70,教育,wgs84,
上海市普陀区朝春中心小学,121.4022471,31.24318765,1,70,教育,wgs84,
上海市普陀区曹杨新村第六小学,121.4033629,31.23779068,1,70,教育,wgs84,
曹杨街道社区学校,113.2655186,23.20365632,,70,教育,wgs84,
甘泉教育联合体,109.3455569,36.27662718,,20,区县,wgs84,
上海市甘泉外国语中学,121.4313843,31.26520725,1,70,教育,wgs84,
上海培佳双语学校,121.4270399,31.26127858,1,70,教育,wgs84,
普陀区教育学院附属学校,121.4232415,31.26314072,1,70,教育,wgs84,
上海市延河中学,121.4325093,31.26937055,1,70,教育,wgs84,
上海市子长学校,121.4278853,31.26506343,1,70,教育,wgs84,
上海市普陀区平利路第一小学,121.425795,31.2727707,1,70,教育,wgs84,
上海市普陀区沪太新村第一小学,121.4349291,31.26805224,,50,NoClass,wgs84,
上海市普陀区甘霖初级职业技术学校,121.4305676,31.26903129,1,70,教育,wgs84,
上海市澄源中学,121.4245578,31.26115956,1,70,教育,wgs84,
甘泉街道社区学校,105.1610757,33.4414563,,25,乡镇,wgs84,
华东师范大学附属小学,121.4086833,31.22665273,,70,教育,wgs84,
华东师范大学第四附属中学,117.6859641,49.46331207,,25,乡镇,wgs84,
上海市怒江中学,121.3974521,31.23706799,1,70,教育,wgs84,
华东师范大学附属小学,121.4086833,31.22665273,,70,教育,wgs84,
上海市普陀区金沙江路小学,121.3937772,31.23032557,1,70,教育,wgs84,
石泉教育联合体,108.2434444,33.04025464,,20,区县,wgs84,
上海市北海中学,121.4220777,31.25919674,1,70,教育,wgs84,
上海市洵阳中学,121.4209368,31.25360333,1,70,教育,wgs84,
上海市普陀区管弄新村小学,121.4190469,31.25866681,1,70,教育,wgs84,
上海市普陀区中山北路第一小学,121.4235072,31.25099888,1,70,教育,wgs84,
上海市普陀区陆家宅小学,121.4179951,31.24831422,1,70,教育,wgs84,
上海市普陀区洵阳路小学,121.4204644,31.2510474,1,70,教育,wgs84,
上海兰田中学,121.4157912,31.24648839,1,70,教育,wgs84,
上海市普陀区启星学校,121.418992,31.25097206,1,70,教育,wgs84,
石泉街道社区学校,104.8959465,35.55989725,,25,乡镇,wgs84,
桃浦教育联合体,121.3583599,31.28089509,,25,乡镇,wgs84,
上海市桃浦中学,121.3476384,31.28437229,1,70,教育,wgs84,
上海市新杨中学,121.3500141,31.28899406,1,70,教育,wgs84,
上海市文达学校,121.3825179,31.29383267,1,70,教育,wgs84,
上海外国语大学尚阳外国语学校,121.3749689,31.25994004,,70,教育,wgs84,
上海市金鼎学校,121.3809852,31.25950868,1,70,教育,wgs84,
上海市普陀区恒德小学,121.3420676,31.28756995,1,70,教育,wgs84,
上海市普陀区联建小学,121.3465743,31.286624,1,70,教育,wgs84,
上海市普陀区桃浦中心小学,121.3396278,31.2912933,1,70,教育,wgs84,
桃浦镇社区学校,121.3583599,31.28089509,,25,乡镇,wgs84,
万里教育联合体,121.6489645,25.17622746,,25,乡镇,wgs84,
上海市晋元高级中学,121.3931647,31.27387866,,50,NoClass,wgs84,
上海市晋元高级中学附属学校,121.3945539,31.27874897,1,70,教育,wgs84,
上海市万里城实验学校,121.4145126,31.26612916,1,70,教育,wgs84,
上海市民办进华中学,121.4039873,31.26596776,1,70,教育,wgs84,
万里街道社区学校,121.400345,31.27388641,,25,乡镇,wgs84,
宜川教育联合体,110.1635035,36.05010105,,20,区县,wgs84,
上海市宜川中学,121.4403141,31.26365983,1,70,教育,wgs84,
上海市宜川中学附属学校,121.4415389,31.26016996,1,70,教育,wgs84,
上海市洛川学校,121.4313155,31.26133586,1,70,教育,wgs84,
上海市中远实验学校,121.431346,31.25364813,1,70,教育,wgs84,
上海市光新学校,121.4253669,31.2543381,1,70,教育,wgs84,
上海市普陀区华阴小学,121.436793,31.26518211,1,70,教育,wgs84,
上海市民办新黄浦实验学校,121.4429986,31.25665051,1,70,教育,wgs84,
宜川街道社区学校,113.2655186,23.20365632,,70,教育,wgs84,
长风教育联合体,117.226563,30.5729233,,25,乡镇,wgs84,
华东师范大学第四附属中学,117.6859641,49.46331207,,25,乡镇,wgs84,
华东师范大学附属外国语实验学校,121.4115634,31.23168394,,70,教育,wgs84,
上海市怒江中学,121.3974521,31.23706799,1,70,教育,wgs84,
华东师范大学附属小学,121.4086833,31.22665273,,70,教育,wgs84,
上海市普陀区金沙江路小学,121.3937772,31.23032557,1,70,教育,wgs84,
长风街道社区学校,117.226563,30.5729233,,25,乡镇,wgs84,
长寿教育联合体,107.076535,29.86016962,,20,区县,wgs84,
同济大学第二附属中学,121.4309798,31.24146984,,70,教育,wgs84,
上海音乐学院附属安师实验中学,121.4479714,31.19078849,,70,教育,wgs84,
上海市江宁学校,121.4319527,31.24916039,1,70,教育,wgs84,
上海市武宁中学,121.4191105,31.24410408,1,70,教育,wgs84,
上海市普陀区武宁路小学,121.4189505,31.24210009,1,70,教育,wgs84,
上海市普陀区回民小学,121.4261758,31.23892911,1,70,教育,wgs84,
长寿街道社区学校,114.6730091,38.34542466,,25,乡镇,wgs84,
长征教育联合体,123.2043685,41.19762668,,25,乡镇,wgs84,
上海市曹杨中学,121.3628841,31.24660539,1,70,教育,wgs84,
上海市梅陇中学,121.4050566,31.13417713,1,70,教育,wgs84,
上海市长征中学,121.3721355,31.24036967,1,70,教育,wgs84,
上海市曹杨中学附属学校,121.354634,31.23932682,1,70,教育,wgs84,
上海市普陀区曹杨实验小学,121.3734755,31.25021776,1,70,教育,wgs84,
上海市普陀区新普陀小学,121.3895906,31.24356566,1,70,教育,wgs84,
上海市普陀区长征中心小学,121.3666215,31.24106463,1,70,教育,wgs84,
长征镇社区学校,121.3782766,31.24348755,1,70,教育,wgs84,
上海市真如中学,121.3903819,31.25721101,,50,商圈,wgs84,
上海桐柏高级中学,113.4217283,32.3810879,,20,区县,wgs84,
上海师范大学附属第二实验学校,121.3588757,31.11242843,,70,教育,wgs84,
上海市普陀区教育学院附属中学,121.3840217,31.25698512,1,70,教育,wgs84,
上海市铜川学校,121.3871661,31.25208447,1,70,教育,wgs84,
上海市真北中学,121.3913817,31.25907139,1,70,教育,wgs84,
上海市普陀区真如文英中心小学,121.3997643,31.25033034,1,70,教育,wgs84,
上海市普陀区真如第三小学,121.3945804,31.25921751,1,70,教育,wgs84,
上海市普陀区树德小学,121.3830328,31.25999868,1,70,教育,wgs84,
上海市普陀区真光小学,121.374956,31.25416414,1,70,教育,wgs84,
上海金洲小学,121.3815417,31.25209562,1,70,教育,wgs84,
上海玉华中学,121.4694778,31.23194382,,20,城市,wgs84,
上海市普陀区明翔实验学校,121.390701,31.26719976,1,70,教育,wgs84,
真如镇街道社区学校,121.3964662,31.25872234,,25,乡镇,wgs84,
上海市青浦区华新小学,121.2285509,31.24475314,1,70,教育,wgs84,
上海市青浦区凤溪小学,121.2232406,31.21016564,1,70,教育,wgs84,
上海市青浦区嵩华小学,121.2312481,31.18818187,1,70,教育,wgs84,
青浦区金泽教育园区,120.9182093,31.03825619,,25,乡镇,wgs84,
上海市青浦区金泽中学,120.9213072,31.0358813,1,70,教育,wgs84,
上海市青浦区金泽小学,120.9201028,31.03471502,1,70,教育,wgs84,
上海市青浦区商榻小学,120.9199343,31.11957786,1,70,教育,wgs84,
上海市青浦区淀山湖小学,120.9859551,31.05468992,1,70,教育,wgs84,
上海市青浦区金泽幼儿园,120.9209695,31.03485069,1,70,教育,wgs84,
上海市青浦区商榻幼儿园,120.9228882,31.12218832,1,70,教育,wgs84,
上海市青浦区淀山湖幼儿园,120.9611847,31.07098882,1,70,教育,wgs84,
上海市青浦区金泽镇成人中等文化技术（社区）学校,120.9182093,31.03825619,,25,乡镇,wgs84,
上海市青浦区实验小学,121.0917803,31.13901918,1,70,教育,wgs84,
上海市青浦区豫英小学,121.1194014,31.15159389,,20,区县,wgs84,
上海市青浦区御澜湾学校,121.0932768,31.14333472,1,70,地产小区,wgs84,
上海市青浦区实验中学,121.0907115,31.15267418,1,70,教育,wgs84,
上海市青浦区豫才中学,121.1194014,31.15159389,,20,区县,wgs84,
上海市清河湾教育实验园区,121.0889185,31.16938594,1,70,教育,wgs84,
上海市青浦区清河湾幼儿园,121.0896857,31.16841272,1,70,教育,wgs84,
上海市青浦区葛洲坝幼儿园（暂名）,121.1194014,31.15159389,,20,区县,wgs84,
上海市教育学会附属清河湾中学（筹）,121.087653,31.16898221,1,70,教育,wgs84,
上海市教育学会附属清河湾小学（暂名）,121.087653,31.16898221,1,70,教育,wgs84,
上海市青浦区高级职业技术学校（暂名）,121.049688,31.10739271,1,70,教育,wgs84,
上海青浦世界外国语学校,121.2772372,31.19288951,1,70,教育,wgs84,
上海市青浦区尚美中学,121.1044238,31.16157583,1,70,教育,wgs84,
上海师范大学附属外国语小学,121.2300057,31.03368472,,70,教育,wgs84,
上海市松江区九亭小学,121.3087571,31.14037226,1,70,教育,wgs84,
上海市松江区岳阳小学,121.2263215,31.01078281,1,70,教育,wgs84,
上海市松江区新桥小学,121.312378,31.0613785,1,70,教育,wgs84,
上海市松江区实验小学,121.1973307,31.04271282,1,70,教育,wgs84,
上海市松江区九亭第四小学,121.3102764,31.14682218,1,70,教育,wgs84,
上海市松江区九亭第五小学,121.3389082,31.11715863,1,70,教育,wgs84,
上海市松江区第七中学,121.218642,31.00962562,1,70,教育,wgs84,
上海市松江区茸一中学,121.2400856,31.03478894,1,70,教育,wgs84,
华东师范大学松江实验中学,121.2331158,31.03737208,1,70,教育,wgs84,
上海市松江二中（集团）初级中学,121.2413753,31.01185578,1,70,教育,wgs84,
上海市松江区第六中学,121.2250726,31.0134632,1,70,教育,wgs84,
上海市松江区教师进修学院附属立达中学,121.2090266,31.00628973,1,70,教育,wgs84,
上海市松江区李塔汇学校,121.1758091,30.9683728,1,70,教育,wgs84,
上海市松江区泖港学校,121.212577,30.93307432,1,70,教育,wgs84,
上海市松江区古松学校,121.1123496,30.98677119,1,70,教育,wgs84,
上海市松江区五厍学校,121.1331526,30.9401466,1,70,教育,wgs84,
上海市松江区新浜学校,121.054025,30.93928604,1,70,教育,wgs84,
上海市松江区民乐学校,121.220261,31.02110059,1,70,教育,wgs84,
上海市松江区佘山学校,121.1768932,31.09982869,1,70,教育,wgs84,
上海市松江区叶榭学校,121.3111469,30.9392988,1,70,教育,wgs84,
上海市松江区天马山学校,121.1398823,31.06969983,1,70,教育,wgs84,
上海市松江区仓桥学校,121.1996717,31.00968088,1,70,教育,wgs84,
东华大学附属实验学校,121.3536205,31.22433492,,50,工业园区,wgs84,
上海对外经贸大学附属实验学校,121.1804768,31.01488253,1,70,教育,wgs84,
上海市松江区中山小学,121.2369489,31.0076088,1,70,教育,wgs84,
上海市松江区中山永丰实验学校,121.2108433,31.00862937,,50,NoClass,wgs84,
上海市松江区方塔小学,121.2445388,31.00727353,1,70,教育,wgs84,
上海市松江区泗泾第二小学,121.229924,31.11253169,1,70,教育,wgs84,
上海市松江区新闵小学,121.339317,31.08846711,1,70,教育,wgs84,
上海市松江区中山二小,121.2519693,31.06164094,1,70,教育,wgs84,
上海市第三女子初级中学,121.4260934,31.22487616,1,70,教育,wgs84,
上海市省吾中学,121.4184204,31.22670159,1,70,教育,wgs84,
上海市虹桥中学,121.3762365,31.19329805,1,70,教育,wgs84,
上海市新泾中学,121.3588685,31.21293521,1,70,教育,wgs84,
上海市仙霞高级中学,121.3883061,31.21020407,1,70,教育,wgs84,
上海市复旦中学,121.4289998,31.20628722,1,70,教育,wgs84,
上海市复旦初级中学,121.4289998,31.20628722,1,70,教育,wgs84,
上海市长宁区复旦小学,121.4268855,31.20429136,1,70,教育,wgs84,
上海市长宁区适存小学,121.36513,31.21539727,1,70,教育,wgs84,
上海市长宁区北新泾第三小学,121.3614596,31.21917956,1,70,教育,wgs84,
上海市长宁区绿苑小学,121.3564983,31.21370256,1,70,教育,wgs84,
上海市长宁区复旦小学,121.4268855,31.20429136,1,70,教育,wgs84,
上海市长宁区安顺路小学,121.4118331,31.20203753,1,70,教育,wgs84,
上海市长宁区天山第二小学,121.3920878,31.21092364,1,70,教育,wgs84,
上海市长宁区虹桥机场小学,121.391181,31.21149886,,30,道路,wgs84,
上海市长宁区愚园路第一小学,121.4213877,31.219345,1,70,教育,wgs84,
上海市长宁区愚一小学向红分校,121.4303682,31.22327735,1,70,教育,wgs84,
上海市长宁区江苏路第五小学,121.4224179,31.22817452,1,70,教育,wgs84,
上海市长宁区安顺路小学,121.4118331,31.20203753,1,70,教育,wgs84,
上海市长宁区长宁路小学,121.4026297,31.220622,1,70,教育,wgs84,
上海市长宁实验小学,121.3834408,31.21143677,1,70,教育,wgs84,
上海市长宁区新虹桥小学,121.3835464,31.20503571,1,70,教育,wgs84,
上海市长宁区威宁小学,121.3800714,31.21048648,1,70,教育,wgs84,
上海市南洋初级中学,121.4323517,31.20279927,1,70,教育,wgs84,
上海师大附中附属龙华中学,121.4894509,31.1269627,,70,教育,wgs84,
上海市龙苑中学,121.4495633,31.15967845,1,70,教育,wgs84,
上海市龙漕中学,121.4373214,31.17390553,1,70,教育,wgs84,
上海市教育科学研究院实验小学,121.4596751,31.20321405,1,70,教育,wgs84,
上海市日晖新村小学,121.4601466,31.19725258,1,70,教育,wgs84,
上海市江南新村小学,121.3273564,31.83114495,,25,乡镇,wgs84,
上海市龙南小学,121.449106,31.157932,1,70,教育,wgs84,
上海市龙华小学,121.446231,31.17316494,1,70,教育,wgs84,
上海市民办盛大花园小学,121.4490323,31.17799649,1,70,教育,wgs84,
华东理工大学附属中学,121.4199391,31.13372464,,70,教育,wgs84,
上海市梅园中学,121.4135567,31.13925162,1,70,教育,wgs84,
华东理工大学附属小学,121.4191622,31.13980433,,70,教育,wgs84,
上海市徐汇区启新小学,121.4149755,31.13241371,1,70,教育,wgs84,
上海市实验学校附属小学,121.4247951,31.13371666,1,70,教育,wgs84,
上海市南洋模范中学,121.4471554,31.19213191,1,70,教育,wgs84,
上海市南洋模范初级中学,121.4323517,31.20279927,1,70,教育,wgs84,
上海民办南模中学,121.4407636,31.17863897,1,70,教育,wgs84,
上海市西南模范中学,121.4298751,31.14898559,1,70,教育,wgs84,
上海市中国中学,121.4242496,31.16227352,1,70,教育,wgs84,
上海市世界外国语中学,121.4104106,31.1520265,1,70,教育,wgs84,
康健外国语实验中学,121.4760653,31.2075563,,70,休闲娱乐,wgs84,
上海市世界外国语小学,121.4133173,31.15291649,,50,NoClass,wgs84,
上海师范大学第一附属小学,117.721127,49.45245424,,25,乡镇,wgs84,
康健外国语实验小学,121.409072,31.15628906,,70,教育,wgs84,
上海市康宁科技实验小学,121.422022,31.15777585,1,70,教育,wgs84,
上海市樱花园小学,121.4088664,31.14888234,1,70,教育,wgs84,
上海师范大学第三附属实验学校,121.4335371,31.16489291,,70,教育,wgs84,
上海市求知小学,121.4237689,31.16693094,1,70,教育,wgs84,
徐汇区董李凤美康健学校,121.4063677,31.15255783,1,70,教育,wgs84,
上海市位育初级中学,121.452136,31.21329741,1,70,教育,wgs84,
上海市第二初级中学,121.4514467,31.20999847,1,70,教育,wgs84,
上海市位育实验学校,121.4488974,31.21972712,1,70,教育,wgs84,
上海市第五十四中学,121.44443,31.21257452,1,70,教育,wgs84,
上海市向阳小学,121.4524798,31.20961496,1,70,教育,wgs84,
上海市建襄小学,121.4556323,31.21022123,1,70,教育,wgs84,
上海市高安路第一小学,121.4389865,31.20744542,1,70,教育,wgs84,
徐汇区第一中心小学,121.4549973,31.214683,1,70,教育,wgs84,
上海市世界小学,121.4351288,31.20961908,1,70,教育,wgs84,
上海市爱菊小学,121.4378734,31.21500218,1,70,教育,wgs84,
上海市西南位育中学,121.4559624,31.19444666,1,70,教育,wgs84,
上海市田林中学,121.4148477,31.17639455,1,70,教育,wgs84,
上海市田林第二中学,121.4188185,31.17201562,1,70,教育,wgs84,
上海市田林第三中学,121.4248517,31.17505012,1,70,教育,wgs84,
上海市田林小学,121.4161168,31.17267368,1,70,教育,wgs84,
上海市田林第一小学,121.4149684,31.18055556,1,70,教育,wgs84,
上海市田林第三小学,121.4227783,31.17285271,1,70,教育,wgs84,
上海市田林第四小学,121.422083,31.17869817,1,70,教育,wgs84,
上海市吴中路小学,121.4178265,31.19384553,1,70,教育,wgs84,
上海市漕河泾新兴技术开发区实验小学,121.3966872,31.15870356,1,70,教育,wgs84,
上海市徐汇中学,121.431357,31.19404754,1,70,教育,wgs84,
上海市第四中学,121.442635,31.1968904,1,70,教育,wgs84,
上海市零陵中学,121.4517811,31.19110972,1,70,教育,wgs84,
上海市宛平中学,121.4384588,31.19329438,1,70,教育,wgs84,
上海市汇师小学,121.4283422,31.18998197,1,70,教育,wgs84,
上海市徐汇区东二小学,121.4464335,31.18527816,1,70,教育,wgs84,
上海市东安三村小学,121.4411827,31.18781336,1,70,教育,wgs84,
上海市光启小学,121.4339235,31.18543583,1,70,教育,wgs84,
上海交通大学附属小学,121.4229833,31.19402177,,70,教育,wgs84,
上海市虹桥路小学,121.4244452,31.19785918,1,70,教育,wgs84,
上海市园南中学,121.4404909,31.14420441,1,70,教育,wgs84,
上海市汾阳中学,121.4318296,31.15222696,1,70,教育,wgs84,
徐汇区教师进修学院附属实验中学,121.4280691,31.13959091,1,70,教育,wgs84,
上海市长桥中学,121.4342863,31.13240731,1,70,教育,wgs84,
上海市紫阳中学,121.4505114,31.11466564,1,70,教育,wgs84,
上海市徐汇位育体校,121.4393444,31.11997994,1,70,教育,wgs84,
上海市民办华育中学,121.4493471,31.11871638,1,70,教育,wgs84,
上海市上海小学,121.4315656,31.1402796,1,70,教育,wgs84,
上海市园南小学,121.4365008,31.14353093,1,70,教育,wgs84,
徐汇区教师进修学院附属实验小学,121.4333464,31.13555527,1,70,教育,wgs84,
徐汇区长桥第二小学,121.4392739,31.136663,1,70,教育,wgs84,
上海体育职业学院附属小学,121.4424838,31.13382951,1,70,教育,wgs84,
上海市向阳育才小学,121.4336783,31.15085566,1,70,教育,wgs84,
上海市华泾小学,121.4473504,31.12821786,1,70,教育,wgs84,
上海市徐浦小学,121.4564168,31.12456566,1,70,教育,wgs84,
上海市徐汇区徐汇实验小学,121.4485852,31.1396836,1,70,教育,wgs84,
上海市逸夫小学,121.4385476,31.13554425,1,70,教育,wgs84,
复旦大学,121.4980327,31.29365392,,70,教育,wgs84,
上海交通大学,121.4669342,31.21445172,,70,教育,wgs84,
同济大学,121.2097665,31.28758492,,70,教育,wgs84,
华东师范大学,121.3955618,31.21253395,,70,教育,wgs84,
东华大学,121.3536205,31.22433492,,50,工业园区,wgs84,
上海财经大学,116.336372,39.95821592,,70,教育,wgs84,
华东理工大学,121.4191598,31.14518747,,70,教育,wgs84,
上海外国语大学,121.697474,31.19565828,,70,教育,wgs84,
上海大学,121.3891637,31.3171223,,70,教育,wgs84,
上海中医药大学,121.4775586,31.30602486,1,70,教育,wgs84,
上海海洋大学,121.8955605,30.88200681,,50,NoClass,wgs84,
上海体育学院,121.5214511,31.31519517,,70,教育,wgs84,
上海音乐学院,121.4479714,31.19078849,,70,教育,wgs84,
上海师范大学,121.3588757,31.11242843,,70,教育,wgs84,
上海理工大学,121.5532685,31.29409767,,70,教育,wgs84,
上海海事大学,121.5645891,31.2651836,,70,教育,wgs84,
华东政法大学,121.4120275,31.22858093,,70,教育,wgs84,
上海科技大学,121.4510644,31.20437838,,50,NoClass,wgs84,
上海电力大学,121.887516,30.90442839,,70,教育,wgs84,
上海纽约大学,121.5296537,31.22796856,1,70,教育,wgs84,
上海戏剧学院,121.5106801,31.24165876,,70,休闲娱乐,wgs84,
上海第二工业大学,121.4405862,31.18543208,1,70,教育,wgs84,
上海工程技术大学,121.483371,31.29705292,1,70,教育,wgs84,
上海对外经贸大学,121.213037,31.04843006,1,70,教育,wgs84,
上海应用技术大学,121.5062065,30.844978,1,70,教育,wgs84,
上海国家会计学院,121.2861052,31.179648,1,70,教育,wgs84,
上海海关学院,121.5738531,31.17095894,,70,教育,wgs84,
上海政法学院,121.1684133,31.11301562,,70,教育,wgs84,
上海立信会计金融学院,121.5341456,31.23764383,1,70,教育,wgs84,
上海电机学院,121.8813196,30.89068267,,70,教育,wgs84,
上海健康医学院,121.6080245,31.09989095,,50,NoClass,wgs84,
上海商学院,121.4334972,31.25881448,,70,教育,wgs84,
上海公安学院,121.5149397,31.38227245,1,70,教育,wgs84,
上海杉达学院,121.6548265,31.2709029,,70,教育,wgs84,
上海建桥学院,121.888027,30.89397721,1,70,教育,wgs84,
上海视觉艺术学院,121.2015439,31.04832498,1,70,教育,wgs84,
上海立达学院,121.316597,30.93800002,1,70,教育,wgs84,
上海兴伟学院,121.7825439,31.04498407,1,70,教育,wgs84,
上海中侨职业技术大学,121.300261,30.80006784,1,70,教育,wgs84,
上海外国语大学贤达经济人文学院,121.8282345,31.48678605,,70,教育,wgs84,
上海师范大学天华学院,116.1308115,30.47229056,,25,乡镇,wgs84,
上海民航职业技术学院,121.4514863,31.17330051,1,70,教育,wgs84,
上海旅游高等专科学校,121.5078771,30.83551088,1,70,教育,wgs84,
上海科学技术职业学院,121.2535952,31.38873315,1,70,教育,wgs84,
上海出版印刷高等专科学校,121.5385129,31.28530209,1,70,教育,wgs84,
上海城建职业学院,121.4765645,31.24925466,1,70,教育,wgs84,
上海电子信息职业技术学院,121.4245764,31.26751606,1,70,教育,wgs84,
上海交通职业技术学院,121.5630245,31.26499076,1,70,教育,wgs84,
上海海事职业技术学院,121.483989,31.3940218,1,70,教育,wgs84,
上海行健职业学院,121.4270048,31.28204238,1,70,教育,wgs84,
上海农林职业技术学院,121.1672833,30.89752549,1,70,教育,wgs84,
上海工艺美术职业学院,121.2476616,31.41012928,1,70,教育,wgs84,
上海工会管理职业学院,121.4908091,31.28819526,1,70,教育,wgs84,
上海工商职业技术学院,121.2166382,31.25061012,1,70,教育,wgs84,
上海东海职业技术学院,121.4527207,31.0318786,1,70,教育,wgs84,
上海欧华职业技术学院,121.6928686,30.87528404,,50,NoClass,wgs84,
上海工商外国语职业学院,121.7769925,31.04977046,1,70,教育,wgs84,
上海震旦职业学院,121.3548876,31.41422404,1,70,教育,wgs84,
上海邦德职业技术学院,121.3973049,31.32490107,1,70,教育,wgs84,
上海济光职业技术学院,121.495467,31.30314043,1,70,教育,wgs84,
上海民远职业技术学院,121.6558259,31.20057716,1,70,教育,wgs84,
上海思博职业技术学院,121.7763444,31.03970671,1,70,教育,wgs84,
上海电影艺术职业学院,121.5808951,31.19396683,1,70,教育,wgs84,
中国人民解放军海军军医大学,121.4229772,31.20227089,,70,医疗,wgs84,
上海医药职工大学,121.5040607,31.26686799,1,70,教育,wgs84,
上海市静安区业余大学,121.449038,31.31035463,1,70,教育,wgs84,
上海青年管理干部学院,121.4741035,31.27628252,1,70,政府机构,wgs84,
上海市徐汇区业余大学,121.456861,31.19772799,1,70,教育,wgs84,
上海纺织工业职工大学,121.4958256,31.25638074,,50,NoClass,wgs84,
上海市黄浦区业余大学,121.4864986,31.23266674,1,70,教育,wgs84,
上海市长宁区业余大学,121.3873347,31.2050608,1,70,教育,wgs84,
上海市杨浦区业余大学,121.5217639,31.32657023,1,70,教育,wgs84,
上海开放大学,121.4588896,31.20935485,1,70,教育,wgs84,
上海市经济管理干部学院,121.4187722,31.2145573,1,70,教育,wgs84,
上海科技管理干部学院,121.2482756,31.37951797,1,70,政府机构,wgs84,
上海市普陀区业余大学,121.408187,31.24257444,1,70,教育,wgs84,
上海市虹口区业余大学,121.4849181,31.25059643,1,70,教育,wgs84,
上海市宝山区业余大学,121.4834897,31.39400685,1,70,教育,wgs84,